$GPRMC,182700.61,A,5166.01,N,03922.89,E,0.x,x.x,200719,x.x,a,a*hh<CR><LF>
$GPRMC,182701.58,A,5166.02,N,03922.89,E,0.x,x.x,200719,x.x,a,a*hh<CR><LF>
$GPRMC,182702.55,A,5166.03,N,03922.89,E,0.x,x.x,200719,x.x,a,a*hh<CR><LF>
$GPRMC,182703.52,A,5166.04,N,03922.89,E,0.x,x.x,200719,x.x,a,a*hh<CR><LF>
$GPRMC,184957.90,A,5165.92,N,03922.68,E,0.x,x.x,210719,x.x,a,a*hh<CR><LF>
$GPRMC,184958.88,A,5165.92,N,03922.69,E,0.x,x.x,210719,x.x,a,a*hh<CR><LF>
$GPRMC,184959.85,A,5165.92,N,03922.70,E,0.x,x.x,210719,x.x,a,a*hh<CR><LF>
$GPRMC,185000.82,A,5165.93,N,03922.70,E,0.x,x.x,210719,x.x,a,a*hh<CR><LF>
$GPRMC,185001.81,A,5165.93,N,03922.71,E,0.x,x.x,210719,x.x,a,a*hh<CR><LF>
$GPRMC,185002.78,A,5165.93,N,03922.72,E,0.x,x.x,210719,x.x,a,a*hh<CR><LF>
$GPRMC,185003.75,A,5165.94,N,03922.72,E,0.x,x.x,210719,x.x,a,a*hh<CR><LF>
$GPRMC,185004.73,A,5165.94,N,03922.73,E,0.x,x.x,210719,x.x,a,a*hh<CR><LF>
$GPRMC,185005.70,A,5165.94,N,03922.74,E,0.x,x.x,210719,x.x,a,a*hh<CR><LF>
$GPRMC,185006.67,A,5165.95,N,03922.74,E,0.x,x.x,210719,x.x,a,a*hh<CR><LF>
$GPRMC,185007.64,A,5165.95,N,03922.75,E,0.x,x.x,210719,x.x,a,a*hh<CR><LF>
$GPRMC,185008.60,A,5165.95,N,03922.76,E,0.x,x.x,210719,x.x,a,a*hh<CR><LF>
$GPRMC,185009.57,A,5165.96,N,03922.76,E,0.x,x.x,210719,x.x,a,a*hh<CR><LF>
$GPRMC,185010.54,A,5165.96,N,03922.77,E,0.x,x.x,210719,x.x,a,a*hh<CR><LF>
$GPRMC,185011.51,A,5165.96,N,03922.78,E,0.x,x.x,210719,x.x,a,a*hh<CR><LF>
$GPRMC,185012.48,A,5165.97,N,03922.78,E,0.x,x.x,210719,x.x,a,a*hh<CR><LF>
$GPRMC,185013.46,A,5165.97,N,03922.79,E,0.x,x.x,210719,x.x,a,a*hh<CR><LF>
$GPRMC,081212.97,A,5165.92,N,03922.68,E,0.x,x.x,240719,x.x,a,a*hh<CR><LF>
$GPRMC,081213.94,A,5165.93,N,03922.68,E,0.x,x.x,240719,x.x,a,a*hh<CR><LF>
$GPRMC,081214.90,A,5165.94,N,03922.68,E,0.x,x.x,240719,x.x,a,a*hh<CR><LF>
$GPRMC,081215.87,A,5165.95,N,03922.68,E,0.x,x.x,240719,x.x,a,a*hh<CR><LF>
$GPRMC,081216.84,A,5165.96,N,03922.68,E,0.x,x.x,240719,x.x,a,a*hh<CR><LF>
$GPRMC,081217.80,A,5165.97,N,03922.68,E,0.x,x.x,240719,x.x,a,a*hh<CR><LF>
$GPRMC,081218.77,A,5165.98,N,03922.68,E,0.x,x.x,240719,x.x,a,a*hh<CR><LF>
$GPRMC,081219.74,A,5165.99,N,03922.68,E,0.x,x.x,240719,x.x,a,a*hh<CR><LF>
$GPRMC,081220.70,A,5166.00,N,03922.68,E,0.x,x.x,240719,x.x,a,a*hh<CR><LF>
$GPRMC,081221.67,A,5166.01,N,03922.68,E,0.x,x.x,240719,x.x,a,a*hh<CR><LF>
$GPRMC,081222.64,A,5166.02,N,03922.68,E,0.x,x.x,240719,x.x,a,a*hh<CR><LF>
$GPRMC,081223.61,A,5166.03,N,03922.68,E,0.x,x.x,240719,x.x,a,a*hh<CR><LF>
$GPRMC,081224.57,A,5166.04,N,03922.68,E,0.x,x.x,240719,x.x,a,a*hh<CR><LF>
$GPRMC,081225.54,A,5166.05,N,03922.68,E,0.x,x.x,240719,x.x,a,a*hh<CR><LF>
$GPRMC,081226.51,A,5166.06,N,03922.68,E,0.x,x.x,240719,x.x,a,a*hh<CR><LF>
$GPRMC,081227.48,A,5166.07,N,03922.68,E,0.x,x.x,240719,x.x,a,a*hh<CR><LF>
$GPRMC,081228.45,A,5166.08,N,03922.68,E,0.x,x.x,240719,x.x,a,a*hh<CR><LF>
$GPRMC,081229.41,A,5166.09,N,03922.68,E,0.x,x.x,240719,x.x,a,a*hh<CR><LF>
$GPRMC,081230.38,A,5166.10,N,03922.68,E,0.x,x.x,240719,x.x,a,a*hh<CR><LF>
$GPRMC,081231.35,A,5166.11,N,03922.68,E,0.x,x.x,240719,x.x,a,a*hh<CR><LF>
$GPRMC,081232.31,A,5166.12,N,03922.68,E,0.x,x.x,240719,x.x,a,a*hh<CR><LF>
$GPRMC,081233.28,A,5166.13,N,03922.68,E,0.x,x.x,240719,x.x,a,a*hh<CR><LF>
$GPRMC,081234.25,A,5166.14,N,03922.68,E,0.x,x.x,240719,x.x,a,a*hh<CR><LF>
$GPRMC,081235.21,A,5166.15,N,03922.68,E,0.x,x.x,240719,x.x,a,a*hh<CR><LF>
$GPRMC,081236.18,A,5166.16,N,03922.68,E,0.x,x.x,240719,x.x,a,a*hh<CR><LF>
$GPRMC,081237.15,A,5166.17,N,03922.68,E,0.x,x.x,240719,x.x,a,a*hh<CR><LF>
$GPRMC,081238.11,A,5166.18,N,03922.68,E,0.x,x.x,240719,x.x,a,a*hh<CR><LF>
$GPRMC,081239.08,A,5166.19,N,03922.68,E,0.x,x.x,240719,x.x,a,a*hh<CR><LF>
$GPRMC,081240.05,A,5166.20,N,03922.68,E,0.x,x.x,240719,x.x,a,a*hh<CR><LF>
$GPRMC,081241.01,A,5166.21,N,03922.68,E,0.x,x.x,240719,x.x,a,a*hh<CR><LF>
$GPRMC,081241.98,A,5166.22,N,03922.68,E,0.x,x.x,240719,x.x,a,a*hh<CR><LF>
$GPRMC,081242.95,A,5166.23,N,03922.68,E,0.x,x.x,240719,x.x,a,a*hh<CR><LF>
$GPRMC,081243.91,A,5166.24,N,03922.68,E,0.x,x.x,240719,x.x,a,a*hh<CR><LF>
$GPRMC,081244.88,A,5166.25,N,03922.68,E,0.x,x.x,240719,x.x,a,a*hh<CR><LF>
$GPRMC,081245.85,A,5166.26,N,03922.68,E,0.x,x.x,240719,x.x,a,a*hh<CR><LF>
$GPRMC,081246.81,A,5166.27,N,03922.68,E,0.x,x.x,240719,x.x,a,a*hh<CR><LF>
$GPRMC,081247.78,A,5166.28,N,03922.68,E,0.x,x.x,240719,x.x,a,a*hh<CR><LF>
$GPRMC,081248.75,A,5166.29,N,03922.68,E,0.x,x.x,240719,x.x,a,a*hh<CR><LF>
$GPRMC,081249.71,A,5166.30,N,03922.68,E,0.x,x.x,240719,x.x,a,a*hh<CR><LF>
$GPRMC,081250.68,A,5166.31,N,03922.68,E,0.x,x.x,240719,x.x,a,a*hh<CR><LF>
$GPRMC,081251.65,A,5166.32,N,03922.68,E,0.x,x.x,240719,x.x,a,a*hh<CR><LF>
$GPRMC,081252.61,A,5166.33,N,03922.68,E,0.x,x.x,240719,x.x,a,a*hh<CR><LF>
$GPRMC,081253.58,A,5166.34,N,03922.68,E,0.x,x.x,240719,x.x,a,a*hh<CR><LF>
$GPRMC,081254.55,A,5166.35,N,03922.68,E,0.x,x.x,240719,x.x,a,a*hh<CR><LF>
$GPRMC,081255.51,A,5166.36,N,03922.68,E,0.x,x.x,240719,x.x,a,a*hh<CR><LF>
$GPRMC,081256.48,A,5166.37,N,03922.68,E,0.x,x.x,240719,x.x,a,a*hh<CR><LF>
$GPRMC,081257.45,A,5166.38,N,03922.68,E,0.x,x.x,240719,x.x,a,a*hh<CR><LF>
$GPRMC,081457.66,A,5165.92,N,03922.68,E,0.x,x.x,240719,x.x,a,a*hh<CR><LF>
$GPRMC,081458.62,A,5165.92,N,03922.69,E,0.x,x.x,240719,x.x,a,a*hh<CR><LF>
$GPRMC,081459.59,A,5165.92,N,03922.70,E,0.x,x.x,240719,x.x,a,a*hh<CR><LF>
$GPRMC,081500.56,A,5165.93,N,03922.70,E,0.x,x.x,240719,x.x,a,a*hh<CR><LF>
$GPRMC,081501.52,A,5165.94,N,03922.70,E,0.x,x.x,240719,x.x,a,a*hh<CR><LF>
$GPRMC,081502.49,A,5165.95,N,03922.70,E,0.x,x.x,240719,x.x,a,a*hh<CR><LF>
$GPRMC,081503.46,A,5165.96,N,03922.70,E,0.x,x.x,240719,x.x,a,a*hh<CR><LF>
$GPRMC,081504.42,A,5165.97,N,03922.70,E,0.x,x.x,240719,x.x,a,a*hh<CR><LF>
$GPRMC,081505.39,A,5165.98,N,03922.70,E,0.x,x.x,240719,x.x,a,a*hh<CR><LF>
$GPRMC,081506.36,A,5165.99,N,03922.70,E,0.x,x.x,240719,x.x,a,a*hh<CR><LF>
$GPRMC,081507.33,A,5166.00,N,03922.70,E,0.x,x.x,240719,x.x,a,a*hh<CR><LF>
$GPRMC,081508.29,A,5166.01,N,03922.70,E,0.x,x.x,240719,x.x,a,a*hh<CR><LF>
$GPRMC,081509.26,A,5166.02,N,03922.70,E,0.x,x.x,240719,x.x,a,a*hh<CR><LF>
$GPRMC,081510.23,A,5166.03,N,03922.70,E,0.x,x.x,240719,x.x,a,a*hh<CR><LF>
$GPRMC,081511.19,A,5166.04,N,03922.70,E,0.x,x.x,240719,x.x,a,a*hh<CR><LF>
$GPRMC,081512.16,A,5166.05,N,03922.70,E,0.x,x.x,240719,x.x,a,a*hh<CR><LF>
$GPRMC,081513.13,A,5166.06,N,03922.70,E,0.x,x.x,240719,x.x,a,a*hh<CR><LF>
$GPRMC,081514.10,A,5166.07,N,03922.70,E,0.x,x.x,240719,x.x,a,a*hh<CR><LF>
$GPRMC,081515.06,A,5166.08,N,03922.70,E,0.x,x.x,240719,x.x,a,a*hh<CR><LF>
$GPRMC,081516.03,A,5166.09,N,03922.70,E,0.x,x.x,240719,x.x,a,a*hh<CR><LF>
$GPRMC,081517.00,A,5166.10,N,03922.70,E,0.x,x.x,240719,x.x,a,a*hh<CR><LF>
$GPRMC,081517.96,A,5166.11,N,03922.70,E,0.x,x.x,240719,x.x,a,a*hh<CR><LF>
$GPRMC,081518.93,A,5166.12,N,03922.70,E,0.x,x.x,240719,x.x,a,a*hh<CR><LF>
$GPRMC,081519.90,A,5166.13,N,03922.70,E,0.x,x.x,240719,x.x,a,a*hh<CR><LF>
$GPRMC,081520.86,A,5166.14,N,03922.70,E,0.x,x.x,240719,x.x,a,a*hh<CR><LF>
$GPRMC,081521.83,A,5166.15,N,03922.70,E,0.x,x.x,240719,x.x,a,a*hh<CR><LF>
$GPRMC,081522.80,A,5166.16,N,03922.70,E,0.x,x.x,240719,x.x,a,a*hh<CR><LF>
$GPRMC,081656.94,A,5165.91,N,03922.69,E,0.x,x.x,240719,x.x,a,a*hh<CR><LF>
$GPRMC,081657.91,A,5165.92,N,03922.69,E,0.x,x.x,240719,x.x,a,a*hh<CR><LF>
$GPRMC,081658.87,A,5165.92,N,03922.70,E,0.x,x.x,240719,x.x,a,a*hh<CR><LF>
$GPRMC,081659.84,A,5165.92,N,03922.71,E,0.x,x.x,240719,x.x,a,a*hh<CR><LF>
$GPRMC,081700.81,A,5165.93,N,03922.71,E,0.x,x.x,240719,x.x,a,a*hh<CR><LF>
$GPRMC,081701.77,A,5165.93,N,03922.72,E,0.x,x.x,240719,x.x,a,a*hh<CR><LF>
$GPRMC,081702.74,A,5165.93,N,03922.73,E,0.x,x.x,240719,x.x,a,a*hh<CR><LF>
$GPRMC,081703.71,A,5165.94,N,03922.73,E,0.x,x.x,240719,x.x,a,a*hh<CR><LF>
$GPRMC,081704.67,A,5165.94,N,03922.74,E,0.x,x.x,240719,x.x,a,a*hh<CR><LF>
$GPRMC,081705.64,A,5165.94,N,03922.75,E,0.x,x.x,240719,x.x,a,a*hh<CR><LF>
$GPRMC,081706.62,A,5165.95,N,03922.75,E,0.x,x.x,240719,x.x,a,a*hh<CR><LF>
$GPRMC,081707.59,A,5165.95,N,03922.76,E,0.x,x.x,240719,x.x,a,a*hh<CR><LF>
$GPRMC,081708.55,A,5165.95,N,03922.77,E,0.x,x.x,240719,x.x,a,a*hh<CR><LF>
$GPRMC,081709.52,A,5165.96,N,03922.77,E,0.x,x.x,240719,x.x,a,a*hh<CR><LF>
$GPRMC,081710.49,A,5165.96,N,03922.78,E,0.x,x.x,240719,x.x,a,a*hh<CR><LF>
$GPRMC,081711.46,A,5165.96,N,03922.79,E,0.x,x.x,240719,x.x,a,a*hh<CR><LF>
$GPRMC,081712.42,A,5165.97,N,03922.79,E,0.x,x.x,240719,x.x,a,a*hh<CR><LF>
$GPRMC,081713.39,A,5165.97,N,03922.80,E,0.x,x.x,240719,x.x,a,a*hh<CR><LF>
$GPRMC,081714.36,A,5165.97,N,03922.81,E,0.x,x.x,240719,x.x,a,a*hh<CR><LF>
$GPRMC,081715.32,A,5165.98,N,03922.81,E,0.x,x.x,240719,x.x,a,a*hh<CR><LF>
$GPRMC,081716.29,A,5165.98,N,03922.82,E,0.x,x.x,240719,x.x,a,a*hh<CR><LF>
$GPRMC,081717.26,A,5165.98,N,03922.83,E,0.x,x.x,240719,x.x,a,a*hh<CR><LF>
$GPRMC,081718.22,A,5165.99,N,03922.83,E,0.x,x.x,240719,x.x,a,a*hh<CR><LF>
$GPRMC,081719.19,A,5165.99,N,03922.84,E,0.x,x.x,240719,x.x,a,a*hh<CR><LF>
$GPRMC,081720.16,A,5165.99,N,03922.85,E,0.x,x.x,240719,x.x,a,a*hh<CR><LF>
$GPRMC,083117.05,A,5165.91,N,03922.69,E,0.x,x.x,240719,x.x,a,a*hh<CR><LF>
$GPRMC,083118.02,A,5165.92,N,03922.69,E,0.x,x.x,240719,x.x,a,a*hh<CR><LF>
$GPRMC,083118.98,A,5165.93,N,03922.69,E,0.x,x.x,240719,x.x,a,a*hh<CR><LF>
$GPRMC,083119.95,A,5165.93,N,03922.70,E,0.x,x.x,240719,x.x,a,a*hh<CR><LF>
$GPRMC,083120.92,A,5165.93,N,03922.71,E,0.x,x.x,240719,x.x,a,a*hh<CR><LF>
$GPRMC,083121.88,A,5165.94,N,03922.71,E,0.x,x.x,240719,x.x,a,a*hh<CR><LF>
$GPRMC,083122.85,A,5165.94,N,03922.72,E,0.x,x.x,240719,x.x,a,a*hh<CR><LF>
$GPRMC,083123.82,A,5165.94,N,03922.73,E,0.x,x.x,240719,x.x,a,a*hh<CR><LF>
$GPRMC,083124.78,A,5165.95,N,03922.73,E,0.x,x.x,240719,x.x,a,a*hh<CR><LF>
$GPRMC,083125.75,A,5165.95,N,03922.74,E,0.x,x.x,240719,x.x,a,a*hh<CR><LF>
$GPRMC,083126.72,A,5165.95,N,03922.75,E,0.x,x.x,240719,x.x,a,a*hh<CR><LF>
$GPRMC,083127.68,A,5165.96,N,03922.75,E,0.x,x.x,240719,x.x,a,a*hh<CR><LF>
$GPRMC,083128.65,A,5165.96,N,03922.76,E,0.x,x.x,240719,x.x,a,a*hh<CR><LF>
$GPRMC,083129.62,A,5165.96,N,03922.77,E,0.x,x.x,240719,x.x,a,a*hh<CR><LF>
$GPRMC,083130.58,A,5165.97,N,03922.77,E,0.x,x.x,240719,x.x,a,a*hh<CR><LF>
$GPRMC,083131.55,A,5165.97,N,03922.78,E,0.x,x.x,240719,x.x,a,a*hh<CR><LF>
$GPRMC,083132.52,A,5165.97,N,03922.79,E,0.x,x.x,240719,x.x,a,a*hh<CR><LF>
$GPRMC,083133.49,A,5165.98,N,03922.79,E,0.x,x.x,240719,x.x,a,a*hh<CR><LF>
$GPRMC,083134.45,A,5165.98,N,03922.80,E,0.x,x.x,240719,x.x,a,a*hh<CR><LF>
$GPRMC,083135.42,A,5165.98,N,03922.81,E,0.x,x.x,240719,x.x,a,a*hh<CR><LF>
$GPRMC,083136.39,A,5165.99,N,03922.81,E,0.x,x.x,240719,x.x,a,a*hh<CR><LF>
$GPRMC,083137.36,A,5165.99,N,03922.82,E,0.x,x.x,240719,x.x,a,a*hh<CR><LF>
$GPRMC,083138.33,A,5165.99,N,03922.83,E,0.x,x.x,240719,x.x,a,a*hh<CR><LF>
$GPRMC,083139.30,A,5166.00,N,03922.83,E,0.x,x.x,240719,x.x,a,a*hh<CR><LF>
$GPRMC,083140.26,A,5166.00,N,03922.84,E,0.x,x.x,240719,x.x,a,a*hh<CR><LF>
$GPRMC,083141.23,A,5166.00,N,03922.85,E,0.x,x.x,240719,x.x,a,a*hh<CR><LF>
$GPRMC,083142.20,A,5166.01,N,03922.85,E,0.x,x.x,240719,x.x,a,a*hh<CR><LF>
$GPRMC,083143.16,A,5166.01,N,03922.86,E,0.x,x.x,240719,x.x,a,a*hh<CR><LF>
$GPRMC,083144.13,A,5166.01,N,03922.87,E,0.x,x.x,240719,x.x,a,a*hh<CR><LF>
$GPRMC,083145.10,A,5166.02,N,03922.87,E,0.x,x.x,240719,x.x,a,a*hh<CR><LF>
$GPRMC,083146.06,A,5166.02,N,03922.88,E,0.x,x.x,240719,x.x,a,a*hh<CR><LF>
$GPRMC,083238.86,A,5165.91,N,03922.69,E,0.x,x.x,240719,x.x,a,a*hh<CR><LF>
$GPRMC,083239.83,A,5165.92,N,03922.69,E,0.x,x.x,240719,x.x,a,a*hh<CR><LF>
$GPRMC,083240.79,A,5165.92,N,03922.70,E,0.x,x.x,240719,x.x,a,a*hh<CR><LF>
$GPRMC,083241.76,A,5165.92,N,03922.71,E,0.x,x.x,240719,x.x,a,a*hh<CR><LF>
$GPRMC,083242.72,A,5165.93,N,03922.71,E,0.x,x.x,240719,x.x,a,a*hh<CR><LF>
$GPRMC,083243.69,A,5165.93,N,03922.72,E,0.x,x.x,240719,x.x,a,a*hh<CR><LF>
$GPRMC,083244.66,A,5165.93,N,03922.73,E,0.x,x.x,240719,x.x,a,a*hh<CR><LF>
$GPRMC,083245.64,A,5165.94,N,03922.73,E,0.x,x.x,240719,x.x,a,a*hh<CR><LF>
$GPRMC,083246.61,A,5165.94,N,03922.74,E,0.x,x.x,240719,x.x,a,a*hh<CR><LF>
$GPRMC,083247.57,A,5165.94,N,03922.75,E,0.x,x.x,240719,x.x,a,a*hh<CR><LF>
$GPRMC,083248.54,A,5165.95,N,03922.75,E,0.x,x.x,240719,x.x,a,a*hh<CR><LF>
$GPRMC,083249.51,A,5165.95,N,03922.76,E,0.x,x.x,240719,x.x,a,a*hh<CR><LF>
$GPRMC,083250.47,A,5165.95,N,03922.77,E,0.x,x.x,240719,x.x,a,a*hh<CR><LF>
$GPRMC,083251.44,A,5165.96,N,03922.77,E,0.x,x.x,240719,x.x,a,a*hh<CR><LF>
$GPRMC,083252.41,A,5165.96,N,03922.78,E,0.x,x.x,240719,x.x,a,a*hh<CR><LF>
$GPRMC,083253.38,A,5165.96,N,03922.79,E,0.x,x.x,240719,x.x,a,a*hh<CR><LF>
$GPRMC,083254.34,A,5165.97,N,03922.79,E,0.x,x.x,240719,x.x,a,a*hh<CR><LF>
$GPRMC,083255.31,A,5165.97,N,03922.80,E,0.x,x.x,240719,x.x,a,a*hh<CR><LF>
$GPRMC,083256.28,A,5165.97,N,03922.81,E,0.x,x.x,240719,x.x,a,a*hh<CR><LF>
$GPRMC,083257.24,A,5165.98,N,03922.81,E,0.x,x.x,240719,x.x,a,a*hh<CR><LF>
$GPRMC,083258.21,A,5165.98,N,03922.82,E,0.x,x.x,240719,x.x,a,a*hh<CR><LF>
$GPRMC,083259.18,A,5165.98,N,03922.83,E,0.x,x.x,240719,x.x,a,a*hh<CR><LF>
$GPRMC,083300.14,A,5165.99,N,03922.83,E,0.x,x.x,240719,x.x,a,a*hh<CR><LF>
$GPRMC,083301.11,A,5166.00,N,03922.83,E,0.x,x.x,240719,x.x,a,a*hh<CR><LF>
$GPRMC,083349.34,A,5165.92,N,03922.68,E,0.x,x.x,240719,x.x,a,a*hh<CR><LF>
$GPRMC,083350.31,A,5165.93,N,03922.68,E,0.x,x.x,240719,x.x,a,a*hh<CR><LF>
$GPRMC,083351.28,A,5165.94,N,03922.68,E,0.x,x.x,240719,x.x,a,a*hh<CR><LF>
$GPRMC,083352.24,A,5165.95,N,03922.68,E,0.x,x.x,240719,x.x,a,a*hh<CR><LF>
$GPRMC,083353.21,A,5165.96,N,03922.68,E,0.x,x.x,240719,x.x,a,a*hh<CR><LF>
$GPRMC,083354.18,A,5165.97,N,03922.68,E,0.x,x.x,240719,x.x,a,a*hh<CR><LF>
$GPRMC,083355.14,A,5165.98,N,03922.68,E,0.x,x.x,240719,x.x,a,a*hh<CR><LF>
$GPRMC,083356.11,A,5165.99,N,03922.68,E,0.x,x.x,240719,x.x,a,a*hh<CR><LF>
$GPRMC,083357.08,A,5166.00,N,03922.68,E,0.x,x.x,240719,x.x,a,a*hh<CR><LF>
$GPRMC,083358.04,A,5166.01,N,03922.68,E,0.x,x.x,240719,x.x,a,a*hh<CR><LF>
$GPRMC,083359.01,A,5166.02,N,03922.68,E,0.x,x.x,240719,x.x,a,a*hh<CR><LF>
$GPRMC,083359.98,A,5166.03,N,03922.68,E,0.x,x.x,240719,x.x,a,a*hh<CR><LF>
$GPRMC,083400.95,A,5166.04,N,03922.68,E,0.x,x.x,240719,x.x,a,a*hh<CR><LF>
$GPRMC,083401.91,A,5166.04,N,03922.69,E,0.x,x.x,240719,x.x,a,a*hh<CR><LF>
$GPRMC,083402.88,A,5166.04,N,03922.70,E,0.x,x.x,240719,x.x,a,a*hh<CR><LF>
$GPRMC,083403.85,A,5166.05,N,03922.70,E,0.x,x.x,240719,x.x,a,a*hh<CR><LF>
$GPRMC,083404.82,A,5166.05,N,03922.71,E,0.x,x.x,240719,x.x,a,a*hh<CR><LF>
$GPRMC,083405.78,A,5166.05,N,03922.72,E,0.x,x.x,240719,x.x,a,a*hh<CR><LF>
$GPRMC,083406.75,A,5166.06,N,03922.72,E,0.x,x.x,240719,x.x,a,a*hh<CR><LF>
$GPRMC,083407.71,A,5166.06,N,03922.73,E,0.x,x.x,240719,x.x,a,a*hh<CR><LF>
$GPRMC,083408.68,A,5166.06,N,03922.74,E,0.x,x.x,240719,x.x,a,a*hh<CR><LF>
$GPRMC,083409.65,A,5166.07,N,03922.74,E,0.x,x.x,240719,x.x,a,a*hh<CR><LF>
$GPRMC,083410.61,A,5166.07,N,03922.75,E,0.x,x.x,240719,x.x,a,a*hh<CR><LF>
$GPRMC,083411.58,A,5166.07,N,03922.76,E,0.x,x.x,240719,x.x,a,a*hh<CR><LF>
$GPRMC,083412.55,A,5166.08,N,03922.76,E,0.x,x.x,240719,x.x,a,a*hh<CR><LF>
$GPRMC,083413.52,A,5166.08,N,03922.77,E,0.x,x.x,240719,x.x,a,a*hh<CR><LF>
$GPRMC,083414.48,A,5166.08,N,03922.78,E,0.x,x.x,240719,x.x,a,a*hh<CR><LF>
$GPRMC,083415.45,A,5166.09,N,03922.78,E,0.x,x.x,240719,x.x,a,a*hh<CR><LF>
$GPRMC,083416.42,A,5166.09,N,03922.79,E,0.x,x.x,240719,x.x,a,a*hh<CR><LF>
$GPRMC,083417.38,A,5166.09,N,03922.80,E,0.x,x.x,240719,x.x,a,a*hh<CR><LF>
$GPRMC,083418.35,A,5166.10,N,03922.80,E,0.x,x.x,240719,x.x,a,a*hh<CR><LF>
$GPRMC,083419.32,A,5166.10,N,03922.81,E,0.x,x.x,240719,x.x,a,a*hh<CR><LF>
$GPRMC,083420.28,A,5166.10,N,03922.82,E,0.x,x.x,240719,x.x,a,a*hh<CR><LF>
$GPRMC,083421.25,A,5166.11,N,03922.82,E,0.x,x.x,240719,x.x,a,a*hh<CR><LF>
$GPRMC,083422.22,A,5166.11,N,03922.83,E,0.x,x.x,240719,x.x,a,a*hh<CR><LF>
$GPRMC,083423.18,A,5166.11,N,03922.84,E,0.x,x.x,240719,x.x,a,a*hh<CR><LF>
$GPRMC,083424.15,A,5166.12,N,03922.84,E,0.x,x.x,240719,x.x,a,a*hh<CR><LF>
$GPRMC,083425.12,A,5166.12,N,03922.85,E,0.x,x.x,240719,x.x,a,a*hh<CR><LF>
$GPRMC,083426.08,A,5166.12,N,03922.86,E,0.x,x.x,240719,x.x,a,a*hh<CR><LF>
$GPRMC,083427.05,A,5166.13,N,03922.86,E,0.x,x.x,240719,x.x,a,a*hh<CR><LF>
$GPRMC,083428.02,A,5166.13,N,03922.87,E,0.x,x.x,240719,x.x,a,a*hh<CR><LF>
$GPRMC,083428.98,A,5166.13,N,03922.88,E,0.x,x.x,240719,x.x,a,a*hh<CR><LF>
$GPRMC,083429.95,A,5166.13,N,03922.89,E,0.x,x.x,240719,x.x,a,a*hh<CR><LF>
$GPRMC,083430.92,A,5166.14,N,03922.89,E,0.x,x.x,240719,x.x,a,a*hh<CR><LF>
$GPRMC,083431.89,A,5166.14,N,03922.90,E,0.x,x.x,240719,x.x,a,a*hh<CR><LF>
$GPRMC,083432.86,A,5166.14,N,03922.91,E,0.x,x.x,240719,x.x,a,a*hh<CR><LF>
$GPRMC,083433.82,A,5166.15,N,03922.91,E,0.x,x.x,240719,x.x,a,a*hh<CR><LF>
$GPRMC,083434.79,A,5166.15,N,03922.92,E,0.x,x.x,240719,x.x,a,a*hh<CR><LF>
$GPRMC,083435.76,A,5166.15,N,03922.93,E,0.x,x.x,240719,x.x,a,a*hh<CR><LF>
$GPRMC,083436.72,A,5166.16,N,03922.93,E,0.x,x.x,240719,x.x,a,a*hh<CR><LF>
$GPRMC,083437.69,A,5166.16,N,03922.94,E,0.x,x.x,240719,x.x,a,a*hh<CR><LF>
$GPRMC,083438.65,A,5166.16,N,03922.95,E,0.x,x.x,240719,x.x,a,a*hh<CR><LF>
$GPRMC,083439.62,A,5166.17,N,03922.95,E,0.x,x.x,240719,x.x,a,a*hh<CR><LF>
$GPRMC,083440.59,A,5166.17,N,03922.96,E,0.x,x.x,240719,x.x,a,a*hh<CR><LF>
$GPRMC,083441.55,A,5166.17,N,03922.97,E,0.x,x.x,240719,x.x,a,a*hh<CR><LF>
$GPRMC,083442.52,A,5166.18,N,03922.97,E,0.x,x.x,240719,x.x,a,a*hh<CR><LF>
$GPRMC,083443.49,A,5166.18,N,03922.98,E,0.x,x.x,240719,x.x,a,a*hh<CR><LF>
$GPRMC,083444.45,A,5166.18,N,03922.99,E,0.x,x.x,240719,x.x,a,a*hh<CR><LF>
$GPRMC,083445.42,A,5166.19,N,03922.99,E,0.x,x.x,240719,x.x,a,a*hh<CR><LF>
$GPRMC,083446.39,A,5166.19,N,03923.00,E,0.x,x.x,240719,x.x,a,a*hh<CR><LF>
$GPRMC,083447.35,A,5166.19,N,03923.01,E,0.x,x.x,240719,x.x,a,a*hh<CR><LF>
$GPRMC,083448.32,A,5166.20,N,03923.01,E,0.x,x.x,240719,x.x,a,a*hh<CR><LF>
$GPRMC,083449.29,A,5166.20,N,03923.02,E,0.x,x.x,240719,x.x,a,a*hh<CR><LF>
$GPRMC,083450.25,A,5166.20,N,03923.03,E,0.x,x.x,240719,x.x,a,a*hh<CR><LF>
$GPRMC,083451.24,A,5166.21,N,03923.03,E,0.x,x.x,240719,x.x,a,a*hh<CR><LF>
$GPRMC,083452.21,A,5166.21,N,03923.04,E,0.x,x.x,240719,x.x,a,a*hh<CR><LF>
$GPRMC,083453.17,A,5166.21,N,03923.05,E,0.x,x.x,240719,x.x,a,a*hh<CR><LF>
$GPRMC,083454.14,A,5166.22,N,03923.05,E,0.x,x.x,240719,x.x,a,a*hh<CR><LF>
$GPRMC,083455.11,A,5166.22,N,03923.06,E,0.x,x.x,240719,x.x,a,a*hh<CR><LF>
$GPRMC,083456.08,A,5166.22,N,03923.07,E,0.x,x.x,240719,x.x,a,a*hh<CR><LF>
$GPRMC,083457.05,A,5166.23,N,03923.07,E,0.x,x.x,240719,x.x,a,a*hh<CR><LF>
$GPRMC,083458.02,A,5166.23,N,03923.08,E,0.x,x.x,240719,x.x,a,a*hh<CR><LF>
$GPRMC,083458.99,A,5166.23,N,03923.09,E,0.x,x.x,240719,x.x,a,a*hh<CR><LF>
$GPRMC,083459.95,A,5166.23,N,03923.10,E,0.x,x.x,240719,x.x,a,a*hh<CR><LF>
$GPRMC,083500.92,A,5166.24,N,03923.10,E,0.x,x.x,240719,x.x,a,a*hh<CR><LF>
$GPRMC,083501.89,A,5166.24,N,03923.11,E,0.x,x.x,240719,x.x,a,a*hh<CR><LF>
$GPRMC,083502.85,A,5166.24,N,03923.12,E,0.x,x.x,240719,x.x,a,a*hh<CR><LF>
$GPRMC,083503.82,A,5166.25,N,03923.12,E,0.x,x.x,240719,x.x,a,a*hh<CR><LF>
$GPRMC,083504.79,A,5166.25,N,03923.13,E,0.x,x.x,240719,x.x,a,a*hh<CR><LF>
$GPRMC,083505.76,A,5166.25,N,03923.14,E,0.x,x.x,240719,x.x,a,a*hh<CR><LF>
$GPRMC,083506.72,A,5166.26,N,03923.14,E,0.x,x.x,240719,x.x,a,a*hh<CR><LF>
$GPRMC,083507.69,A,5166.26,N,03923.15,E,0.x,x.x,240719,x.x,a,a*hh<CR><LF>
$GPRMC,083508.65,A,5166.26,N,03923.16,E,0.x,x.x,240719,x.x,a,a*hh<CR><LF>
$GPRMC,083509.62,A,5166.27,N,03923.16,E,0.x,x.x,240719,x.x,a,a*hh<CR><LF>
$GPRMC,083510.59,A,5166.27,N,03923.17,E,0.x,x.x,240719,x.x,a,a*hh<CR><LF>
$GPRMC,083511.55,A,5166.27,N,03923.18,E,0.x,x.x,240719,x.x,a,a*hh<CR><LF>
$GPRMC,083512.53,A,5166.28,N,03923.18,E,0.x,x.x,240719,x.x,a,a*hh<CR><LF>
$GPRMC,083513.49,A,5166.28,N,03923.19,E,0.x,x.x,240719,x.x,a,a*hh<CR><LF>
$GPRMC,083514.46,A,5166.28,N,03923.20,E,0.x,x.x,240719,x.x,a,a*hh<CR><LF>
$GPRMC,083515.43,A,5166.29,N,03923.20,E,0.x,x.x,240719,x.x,a,a*hh<CR><LF>
$GPRMC,083516.40,A,5166.29,N,03923.21,E,0.x,x.x,240719,x.x,a,a*hh<CR><LF>
$GPRMC,083517.36,A,5166.29,N,03923.22,E,0.x,x.x,240719,x.x,a,a*hh<CR><LF>
$GPRMC,083518.33,A,5166.30,N,03923.22,E,0.x,x.x,240719,x.x,a,a*hh<CR><LF>
$GPRMC,083519.30,A,5166.30,N,03923.23,E,0.x,x.x,240719,x.x,a,a*hh<CR><LF>
$GPRMC,083520.27,A,5166.30,N,03923.24,E,0.x,x.x,240719,x.x,a,a*hh<CR><LF>
$GPRMC,083521.23,A,5166.31,N,03923.24,E,0.x,x.x,240719,x.x,a,a*hh<CR><LF>
$GPRMC,083522.20,A,5166.31,N,03923.25,E,0.x,x.x,240719,x.x,a,a*hh<CR><LF>
$GPRMC,083523.17,A,5166.31,N,03923.26,E,0.x,x.x,240719,x.x,a,a*hh<CR><LF>
$GPRMC,083524.13,A,5166.32,N,03923.26,E,0.x,x.x,240719,x.x,a,a*hh<CR><LF>
$GPRMC,083525.10,A,5166.32,N,03923.27,E,0.x,x.x,240719,x.x,a,a*hh<CR><LF>
$GPRMC,083526.07,A,5166.32,N,03923.28,E,0.x,x.x,240719,x.x,a,a*hh<CR><LF>
$GPRMC,083527.03,A,5166.33,N,03923.28,E,0.x,x.x,240719,x.x,a,a*hh<CR><LF>
$GPRMC,083528.00,A,5166.33,N,03923.29,E,0.x,x.x,240719,x.x,a,a*hh<CR><LF>
$GPRMC,083528.97,A,5166.33,N,03923.30,E,0.x,x.x,240719,x.x,a,a*hh<CR><LF>
$GPRMC,083529.94,A,5166.33,N,03923.31,E,0.x,x.x,240719,x.x,a,a*hh<CR><LF>
$GPRMC,083530.90,A,5166.34,N,03923.31,E,0.x,x.x,240719,x.x,a,a*hh<CR><LF>
$GPRMC,083531.87,A,5166.34,N,03923.32,E,0.x,x.x,240719,x.x,a,a*hh<CR><LF>
$GPRMC,083532.84,A,5166.34,N,03923.33,E,0.x,x.x,240719,x.x,a,a*hh<CR><LF>
$GPRMC,083533.80,A,5166.35,N,03923.33,E,0.x,x.x,240719,x.x,a,a*hh<CR><LF>
$GPRMC,083534.77,A,5166.35,N,03923.34,E,0.x,x.x,240719,x.x,a,a*hh<CR><LF>
$GPRMC,083535.74,A,5166.35,N,03923.35,E,0.x,x.x,240719,x.x,a,a*hh<CR><LF>
$GPRMC,083536.70,A,5166.36,N,03923.35,E,0.x,x.x,240719,x.x,a,a*hh<CR><LF>
$GPRMC,083537.67,A,5166.36,N,03923.36,E,0.x,x.x,240719,x.x,a,a*hh<CR><LF>
$GPRMC,083538.64,A,5166.36,N,03923.37,E,0.x,x.x,240719,x.x,a,a*hh<CR><LF>
$GPRMC,083539.60,A,5166.37,N,03923.37,E,0.x,x.x,240719,x.x,a,a*hh<CR><LF>
$GPRMC,083540.57,A,5166.37,N,03923.38,E,0.x,x.x,240719,x.x,a,a*hh<CR><LF>
$GPRMC,083541.54,A,5166.37,N,03923.39,E,0.x,x.x,240719,x.x,a,a*hh<CR><LF>
$GPRMC,083542.51,A,5166.38,N,03923.39,E,0.x,x.x,240719,x.x,a,a*hh<CR><LF>
$GPRMC,083543.48,A,5166.38,N,03923.40,E,0.x,x.x,240719,x.x,a,a*hh<CR><LF>
$GPRMC,083544.44,A,5166.38,N,03923.41,E,0.x,x.x,240719,x.x,a,a*hh<CR><LF>
$GPRMC,083545.41,A,5166.39,N,03923.41,E,0.x,x.x,240719,x.x,a,a*hh<CR><LF>
$GPRMC,083546.38,A,5166.39,N,03923.42,E,0.x,x.x,240719,x.x,a,a*hh<CR><LF>
$GPRMC,083547.35,A,5166.39,N,03923.43,E,0.x,x.x,240719,x.x,a,a*hh<CR><LF>
$GPRMC,083548.31,A,5166.40,N,03923.43,E,0.x,x.x,240719,x.x,a,a*hh<CR><LF>
$GPRMC,083549.28,A,5166.40,N,03923.44,E,0.x,x.x,240719,x.x,a,a*hh<CR><LF>
$GPRMC,083550.25,A,5166.40,N,03923.45,E,0.x,x.x,240719,x.x,a,a*hh<CR><LF>
$GPRMC,083551.21,A,5166.41,N,03923.45,E,0.x,x.x,240719,x.x,a,a*hh<CR><LF>
$GPRMC,083552.18,A,5166.41,N,03923.46,E,0.x,x.x,240719,x.x,a,a*hh<CR><LF>
$GPRMC,083553.15,A,5166.41,N,03923.47,E,0.x,x.x,240719,x.x,a,a*hh<CR><LF>
$GPRMC,083554.12,A,5166.42,N,03923.47,E,0.x,x.x,240719,x.x,a,a*hh<CR><LF>
$GPRMC,083555.08,A,5166.42,N,03923.48,E,0.x,x.x,240719,x.x,a,a*hh<CR><LF>
$GPRMC,083556.05,A,5166.42,N,03923.49,E,0.x,x.x,240719,x.x,a,a*hh<CR><LF>
$GPRMC,083557.02,A,5166.43,N,03923.49,E,0.x,x.x,240719,x.x,a,a*hh<CR><LF>
$GPRMC,083557.98,A,5166.44,N,03923.49,E,0.x,x.x,240719,x.x,a,a*hh<CR><LF>
$GPRMC,083558.95,A,5166.44,N,03923.50,E,0.x,x.x,240719,x.x,a,a*hh<CR><LF>
$GPRMC,083559.92,A,5166.44,N,03923.51,E,0.x,x.x,240719,x.x,a,a*hh<CR><LF>
$GPRMC,083600.88,A,5166.45,N,03923.51,E,0.x,x.x,240719,x.x,a,a*hh<CR><LF>
$GPRMC,083601.85,A,5166.46,N,03923.51,E,0.x,x.x,240719,x.x,a,a*hh<CR><LF>
$GPRMC,083602.82,A,5166.47,N,03923.51,E,0.x,x.x,240719,x.x,a,a*hh<CR><LF>
$GPRMC,083603.78,A,5166.48,N,03923.51,E,0.x,x.x,240719,x.x,a,a*hh<CR><LF>
$GPRMC,083604.75,A,5166.49,N,03923.51,E,0.x,x.x,240719,x.x,a,a*hh<CR><LF>
$GPRMC,083605.72,A,5166.50,N,03923.51,E,0.x,x.x,240719,x.x,a,a*hh<CR><LF>
$GPRMC,083606.69,A,5166.51,N,03923.51,E,0.x,x.x,240719,x.x,a,a*hh<CR><LF>
$GPRMC,083607.66,A,5166.52,N,03923.51,E,0.x,x.x,240719,x.x,a,a*hh<CR><LF>
$GPRMC,083608.63,A,5166.53,N,03923.51,E,0.x,x.x,240719,x.x,a,a*hh<CR><LF>
$GPRMC,083609.59,A,5166.54,N,03923.51,E,0.x,x.x,240719,x.x,a,a*hh<CR><LF>
$GPRMC,083610.56,A,5166.55,N,03923.51,E,0.x,x.x,240719,x.x,a,a*hh<CR><LF>
$GPRMC,083611.53,A,5166.56,N,03923.51,E,0.x,x.x,240719,x.x,a,a*hh<CR><LF>
$GPRMC,083612.49,A,5166.57,N,03923.51,E,0.x,x.x,240719,x.x,a,a*hh<CR><LF>
$GPRMC,083613.46,A,5166.58,N,03923.51,E,0.x,x.x,240719,x.x,a,a*hh<CR><LF>
$GPRMC,083614.43,A,5166.59,N,03923.51,E,0.x,x.x,240719,x.x,a,a*hh<CR><LF>
$GPRMC,083615.40,A,5166.60,N,03923.51,E,0.x,x.x,240719,x.x,a,a*hh<CR><LF>
$GPRMC,083616.36,A,5166.61,N,03923.51,E,0.x,x.x,240719,x.x,a,a*hh<CR><LF>
$GPRMC,083617.33,A,5166.62,N,03923.51,E,0.x,x.x,240719,x.x,a,a*hh<CR><LF>
$GPRMC,083618.30,A,5166.63,N,03923.51,E,0.x,x.x,240719,x.x,a,a*hh<CR><LF>
$GPRMC,083619.27,A,5166.64,N,03923.51,E,0.x,x.x,240719,x.x,a,a*hh<CR><LF>
$GPRMC,083620.24,A,5166.65,N,03923.51,E,0.x,x.x,240719,x.x,a,a*hh<CR><LF>
$GPRMC,083621.20,A,5166.66,N,03923.51,E,0.x,x.x,240719,x.x,a,a*hh<CR><LF>
$GPRMC,083622.17,A,5166.67,N,03923.51,E,0.x,x.x,240719,x.x,a,a*hh<CR><LF>
$GPRMC,083623.14,A,5166.68,N,03923.51,E,0.x,x.x,240719,x.x,a,a*hh<CR><LF>
$GPRMC,083624.10,A,5166.69,N,03923.51,E,0.x,x.x,240719,x.x,a,a*hh<CR><LF>
$GPRMC,083625.08,A,5166.70,N,03923.51,E,0.x,x.x,240719,x.x,a,a*hh<CR><LF>
$GPRMC,083626.04,A,5166.71,N,03923.51,E,0.x,x.x,240719,x.x,a,a*hh<CR><LF>
$GPRMC,083627.01,A,5166.72,N,03923.51,E,0.x,x.x,240719,x.x,a,a*hh<CR><LF>
$GPRMC,083628.02,A,5166.73,N,03923.51,E,0.x,x.x,240719,x.x,a,a*hh<CR><LF>
$GPRMC,083628.99,A,5166.74,N,03923.51,E,0.x,x.x,240719,x.x,a,a*hh<CR><LF>
$GPRMC,083629.95,A,5166.75,N,03923.51,E,0.x,x.x,240719,x.x,a,a*hh<CR><LF>
$GPRMC,083630.93,A,5166.76,N,03923.51,E,0.x,x.x,240719,x.x,a,a*hh<CR><LF>
$GPRMC,083631.90,A,5166.77,N,03923.51,E,0.x,x.x,240719,x.x,a,a*hh<CR><LF>
$GPRMC,083632.87,A,5166.78,N,03923.51,E,0.x,x.x,240719,x.x,a,a*hh<CR><LF>
$GPRMC,083633.83,A,5166.79,N,03923.51,E,0.x,x.x,240719,x.x,a,a*hh<CR><LF>
$GPRMC,083634.80,A,5166.80,N,03923.51,E,0.x,x.x,240719,x.x,a,a*hh<CR><LF>
$GPRMC,083635.76,A,5166.81,N,03923.51,E,0.x,x.x,240719,x.x,a,a*hh<CR><LF>
$GPRMC,083636.73,A,5166.82,N,03923.51,E,0.x,x.x,240719,x.x,a,a*hh<CR><LF>
$GPRMC,083637.70,A,5166.83,N,03923.51,E,0.x,x.x,240719,x.x,a,a*hh<CR><LF>
$GPRMC,083638.66,A,5166.84,N,03923.51,E,0.x,x.x,240719,x.x,a,a*hh<CR><LF>
$GPRMC,083639.63,A,5166.85,N,03923.51,E,0.x,x.x,240719,x.x,a,a*hh<CR><LF>
$GPRMC,083640.60,A,5166.86,N,03923.51,E,0.x,x.x,240719,x.x,a,a*hh<CR><LF>
$GPRMC,083641.57,A,5166.87,N,03923.51,E,0.x,x.x,240719,x.x,a,a*hh<CR><LF>
$GPRMC,083642.54,A,5166.88,N,03923.51,E,0.x,x.x,240719,x.x,a,a*hh<CR><LF>
$GPRMC,083643.51,A,5166.89,N,03923.51,E,0.x,x.x,240719,x.x,a,a*hh<CR><LF>
$GPRMC,083644.47,A,5166.90,N,03923.51,E,0.x,x.x,240719,x.x,a,a*hh<CR><LF>
$GPRMC,083645.44,A,5166.91,N,03923.51,E,0.x,x.x,240719,x.x,a,a*hh<CR><LF>
$GPRMC,083646.41,A,5166.92,N,03923.51,E,0.x,x.x,240719,x.x,a,a*hh<CR><LF>
$GPRMC,083647.37,A,5166.93,N,03923.51,E,0.x,x.x,240719,x.x,a,a*hh<CR><LF>
$GPRMC,083648.34,A,5166.94,N,03923.51,E,0.x,x.x,240719,x.x,a,a*hh<CR><LF>
$GPRMC,083649.30,A,5166.95,N,03923.51,E,0.x,x.x,240719,x.x,a,a*hh<CR><LF>
$GPRMC,083650.27,A,5166.96,N,03923.51,E,0.x,x.x,240719,x.x,a,a*hh<CR><LF>
$GPRMC,083651.24,A,5166.97,N,03923.51,E,0.x,x.x,240719,x.x,a,a*hh<CR><LF>
$GPRMC,083652.21,A,5166.98,N,03923.51,E,0.x,x.x,240719,x.x,a,a*hh<CR><LF>
$GPRMC,083653.17,A,5166.99,N,03923.51,E,0.x,x.x,240719,x.x,a,a*hh<CR><LF>
$GPRMC,083654.14,A,5167.00,N,03923.51,E,0.x,x.x,240719,x.x,a,a*hh<CR><LF>
$GPRMC,083655.10,A,5167.01,N,03923.51,E,0.x,x.x,240719,x.x,a,a*hh<CR><LF>
$GPRMC,083656.07,A,5167.02,N,03923.51,E,0.x,x.x,240719,x.x,a,a*hh<CR><LF>
$GPRMC,083657.04,A,5167.03,N,03923.51,E,0.x,x.x,240719,x.x,a,a*hh<CR><LF>
$GPRMC,083658.00,A,5167.04,N,03923.51,E,0.x,x.x,240719,x.x,a,a*hh<CR><LF>
$GPRMC,083658.97,A,5167.05,N,03923.51,E,0.x,x.x,240719,x.x,a,a*hh<CR><LF>
$GPRMC,083659.94,A,5167.06,N,03923.51,E,0.x,x.x,240719,x.x,a,a*hh<CR><LF>
$GPRMC,083700.90,A,5167.07,N,03923.51,E,0.x,x.x,240719,x.x,a,a*hh<CR><LF>
$GPRMC,083701.87,A,5167.07,N,03923.52,E,0.x,x.x,240719,x.x,a,a*hh<CR><LF>
$GPRMC,083702.84,A,5167.07,N,03923.53,E,0.x,x.x,240719,x.x,a,a*hh<CR><LF>
$GPRMC,083703.80,A,5167.08,N,03923.53,E,0.x,x.x,240719,x.x,a,a*hh<CR><LF>
$GPRMC,083704.77,A,5167.08,N,03923.54,E,0.x,x.x,240719,x.x,a,a*hh<CR><LF>
$GPRMC,083705.74,A,5167.08,N,03923.55,E,0.x,x.x,240719,x.x,a,a*hh<CR><LF>
$GPRMC,083706.70,A,5167.09,N,03923.55,E,0.x,x.x,240719,x.x,a,a*hh<CR><LF>
$GPRMC,083707.67,A,5167.09,N,03923.56,E,0.x,x.x,240719,x.x,a,a*hh<CR><LF>
$GPRMC,083708.64,A,5167.09,N,03923.57,E,0.x,x.x,240719,x.x,a,a*hh<CR><LF>
$GPRMC,083709.60,A,5167.10,N,03923.57,E,0.x,x.x,240719,x.x,a,a*hh<CR><LF>
$GPRMC,083710.57,A,5167.10,N,03923.58,E,0.x,x.x,240719,x.x,a,a*hh<CR><LF>
$GPRMC,083711.54,A,5167.10,N,03923.59,E,0.x,x.x,240719,x.x,a,a*hh<CR><LF>
$GPRMC,083712.50,A,5167.11,N,03923.59,E,0.x,x.x,240719,x.x,a,a*hh<CR><LF>
$GPRMC,083713.47,A,5167.11,N,03923.60,E,0.x,x.x,240719,x.x,a,a*hh<CR><LF>
$GPRMC,083714.44,A,5167.11,N,03923.61,E,0.x,x.x,240719,x.x,a,a*hh<CR><LF>
$GPRMC,083715.40,A,5167.11,N,03923.61,E,0.x,x.x,240719,x.x,a,a*hh<CR><LF>
$GPRMC,083716.37,A,5167.11,N,03923.62,E,0.x,x.x,240719,x.x,a,a*hh<CR><LF>
$GPRMC,084003.60,A,5165.92,N,03922.68,E,0.x,x.x,240719,x.x,a,a*hh<CR><LF>
$GPRMC,084004.57,A,5165.92,N,03922.69,E,0.x,x.x,240719,x.x,a,a*hh<CR><LF>
$GPRMC,084005.54,A,5165.92,N,03922.70,E,0.x,x.x,240719,x.x,a,a*hh<CR><LF>
$GPRMC,084006.51,A,5165.93,N,03922.70,E,0.x,x.x,240719,x.x,a,a*hh<CR><LF>
$GPRMC,084007.47,A,5165.93,N,03922.71,E,0.x,x.x,240719,x.x,a,a*hh<CR><LF>
$GPRMC,084008.44,A,5165.93,N,03922.72,E,0.x,x.x,240719,x.x,a,a*hh<CR><LF>
$GPRMC,084009.41,A,5165.94,N,03922.72,E,0.x,x.x,240719,x.x,a,a*hh<CR><LF>
$GPRMC,084010.37,A,5165.94,N,03922.73,E,0.x,x.x,240719,x.x,a,a*hh<CR><LF>
$GPRMC,084011.34,A,5165.94,N,03922.74,E,0.x,x.x,240719,x.x,a,a*hh<CR><LF>
$GPRMC,084012.31,A,5165.95,N,03922.74,E,0.x,x.x,240719,x.x,a,a*hh<CR><LF>
$GPRMC,084013.27,A,5165.95,N,03922.75,E,0.x,x.x,240719,x.x,a,a*hh<CR><LF>
$GPRMC,084014.24,A,5165.95,N,03922.76,E,0.x,x.x,240719,x.x,a,a*hh<CR><LF>
$GPRMC,084015.20,A,5165.96,N,03922.76,E,0.x,x.x,240719,x.x,a,a*hh<CR><LF>
$GPRMC,084016.17,A,5165.96,N,03922.77,E,0.x,x.x,240719,x.x,a,a*hh<CR><LF>
$GPRMC,084017.14,A,5165.96,N,03922.78,E,0.x,x.x,240719,x.x,a,a*hh<CR><LF>
$GPRMC,084018.11,A,5165.97,N,03922.78,E,0.x,x.x,240719,x.x,a,a*hh<CR><LF>
$GPRMC,084830.34,A,5165.92,N,03922.68,E,0.x,x.x,240719,x.x,a,a*hh<CR><LF>
$GPRMC,084831.31,A,5165.93,N,03922.68,E,0.x,x.x,240719,x.x,a,a*hh<CR><LF>
$GPRMC,084832.28,A,5165.94,N,03922.68,E,0.x,x.x,240719,x.x,a,a*hh<CR><LF>
$GPRMC,084833.25,A,5165.95,N,03922.68,E,0.x,x.x,240719,x.x,a,a*hh<CR><LF>
$GPRMC,084834.21,A,5165.96,N,03922.68,E,0.x,x.x,240719,x.x,a,a*hh<CR><LF>
$GPRMC,084835.18,A,5165.97,N,03922.68,E,0.x,x.x,240719,x.x,a,a*hh<CR><LF>
$GPRMC,084836.15,A,5165.98,N,03922.68,E,0.x,x.x,240719,x.x,a,a*hh<CR><LF>
$GPRMC,084837.11,A,5165.99,N,03922.68,E,0.x,x.x,240719,x.x,a,a*hh<CR><LF>
$GPRMC,084838.08,A,5166.00,N,03922.68,E,0.x,x.x,240719,x.x,a,a*hh<CR><LF>
$GPRMC,084839.05,A,5166.01,N,03922.68,E,0.x,x.x,240719,x.x,a,a*hh<CR><LF>
$GPRMC,084840.01,A,5166.02,N,03922.68,E,0.x,x.x,240719,x.x,a,a*hh<CR><LF>
$GPRMC,084840.98,A,5166.03,N,03922.68,E,0.x,x.x,240719,x.x,a,a*hh<CR><LF>
$GPRMC,084841.95,A,5166.04,N,03922.68,E,0.x,x.x,240719,x.x,a,a*hh<CR><LF>
$GPRMC,084842.91,A,5166.05,N,03922.68,E,0.x,x.x,240719,x.x,a,a*hh<CR><LF>
$GPRMC,084843.88,A,5166.06,N,03922.68,E,0.x,x.x,240719,x.x,a,a*hh<CR><LF>
$GPRMC,084844.85,A,5166.07,N,03922.68,E,0.x,x.x,240719,x.x,a,a*hh<CR><LF>
$GPRMC,084845.81,A,5166.08,N,03922.68,E,0.x,x.x,240719,x.x,a,a*hh<CR><LF>
$GPRMC,084846.78,A,5166.09,N,03922.68,E,0.x,x.x,240719,x.x,a,a*hh<CR><LF>
$GPRMC,084847.74,A,5166.10,N,03922.68,E,0.x,x.x,240719,x.x,a,a*hh<CR><LF>
$GPRMC,084848.71,A,5166.11,N,03922.68,E,0.x,x.x,240719,x.x,a,a*hh<CR><LF>
$GPRMC,084849.68,A,5166.12,N,03922.68,E,0.x,x.x,240719,x.x,a,a*hh<CR><LF>
$GPRMC,084850.64,A,5166.13,N,03922.68,E,0.x,x.x,240719,x.x,a,a*hh<CR><LF>
$GPRMC,084851.61,A,5166.14,N,03922.68,E,0.x,x.x,240719,x.x,a,a*hh<CR><LF>
$GPRMC,084852.58,A,5166.15,N,03922.68,E,0.x,x.x,240719,x.x,a,a*hh<CR><LF>
$GPRMC,084853.55,A,5166.16,N,03922.68,E,0.x,x.x,240719,x.x,a,a*hh<CR><LF>
$GPRMC,084854.52,A,5166.17,N,03922.68,E,0.x,x.x,240719,x.x,a,a*hh<CR><LF>
$GPRMC,084855.48,A,5166.18,N,03922.68,E,0.x,x.x,240719,x.x,a,a*hh<CR><LF>
$GPRMC,084856.45,A,5166.19,N,03922.68,E,0.x,x.x,240719,x.x,a,a*hh<CR><LF>
$GPRMC,084857.42,A,5166.20,N,03922.68,E,0.x,x.x,240719,x.x,a,a*hh<CR><LF>
$GPRMC,084858.38,A,5166.21,N,03922.68,E,0.x,x.x,240719,x.x,a,a*hh<CR><LF>
$GPRMC,084859.35,A,5166.22,N,03922.68,E,0.x,x.x,240719,x.x,a,a*hh<CR><LF>
$GPRMC,084900.32,A,5166.23,N,03922.68,E,0.x,x.x,240719,x.x,a,a*hh<CR><LF>
$GPRMC,084901.29,A,5166.23,N,03922.69,E,0.x,x.x,240719,x.x,a,a*hh<CR><LF>
$GPRMC,084902.25,A,5166.23,N,03922.70,E,0.x,x.x,240719,x.x,a,a*hh<CR><LF>
$GPRMC,084903.22,A,5166.24,N,03922.70,E,0.x,x.x,240719,x.x,a,a*hh<CR><LF>
$GPRMC,084904.19,A,5166.24,N,03922.71,E,0.x,x.x,240719,x.x,a,a*hh<CR><LF>
$GPRMC,084905.16,A,5166.24,N,03922.72,E,0.x,x.x,240719,x.x,a,a*hh<CR><LF>
$GPRMC,084906.12,A,5166.25,N,03922.72,E,0.x,x.x,240719,x.x,a,a*hh<CR><LF>
$GPRMC,084907.09,A,5166.25,N,03922.73,E,0.x,x.x,240719,x.x,a,a*hh<CR><LF>
$GPRMC,084908.06,A,5166.25,N,03922.74,E,0.x,x.x,240719,x.x,a,a*hh<CR><LF>
$GPRMC,084909.03,A,5166.26,N,03922.74,E,0.x,x.x,240719,x.x,a,a*hh<CR><LF>
$GPRMC,084909.99,A,5166.27,N,03922.74,E,0.x,x.x,240719,x.x,a,a*hh<CR><LF>
$GPRMC,084910.96,A,5166.27,N,03922.75,E,0.x,x.x,240719,x.x,a,a*hh<CR><LF>
$GPRMC,084911.92,A,5166.27,N,03922.76,E,0.x,x.x,240719,x.x,a,a*hh<CR><LF>
$GPRMC,084912.89,A,5166.28,N,03922.76,E,0.x,x.x,240719,x.x,a,a*hh<CR><LF>
$GPRMC,084913.86,A,5166.28,N,03922.77,E,0.x,x.x,240719,x.x,a,a*hh<CR><LF>
$GPRMC,084914.83,A,5166.28,N,03922.78,E,0.x,x.x,240719,x.x,a,a*hh<CR><LF>
$GPRMC,084915.79,A,5166.29,N,03922.78,E,0.x,x.x,240719,x.x,a,a*hh<CR><LF>
$GPRMC,084916.76,A,5166.29,N,03922.79,E,0.x,x.x,240719,x.x,a,a*hh<CR><LF>
$GPRMC,084917.73,A,5166.29,N,03922.80,E,0.x,x.x,240719,x.x,a,a*hh<CR><LF>
$GPRMC,084918.69,A,5166.30,N,03922.80,E,0.x,x.x,240719,x.x,a,a*hh<CR><LF>
$GPRMC,084919.66,A,5166.30,N,03922.81,E,0.x,x.x,240719,x.x,a,a*hh<CR><LF>
$GPRMC,084920.62,A,5166.30,N,03922.82,E,0.x,x.x,240719,x.x,a,a*hh<CR><LF>
$GPRMC,084921.59,A,5166.31,N,03922.82,E,0.x,x.x,240719,x.x,a,a*hh<CR><LF>
$GPRMC,084922.56,A,5166.31,N,03922.83,E,0.x,x.x,240719,x.x,a,a*hh<CR><LF>
$GPRMC,084923.52,A,5166.31,N,03922.84,E,0.x,x.x,240719,x.x,a,a*hh<CR><LF>
$GPRMC,084924.49,A,5166.32,N,03922.84,E,0.x,x.x,240719,x.x,a,a*hh<CR><LF>
$GPRMC,084925.46,A,5166.32,N,03922.85,E,0.x,x.x,240719,x.x,a,a*hh<CR><LF>
$GPRMC,084926.46,A,5166.32,N,03922.86,E,0.x,x.x,240719,x.x,a,a*hh<CR><LF>
$GPRMC,084927.43,A,5166.33,N,03922.86,E,0.x,x.x,240719,x.x,a,a*hh<CR><LF>
$GPRMC,084928.39,A,5166.33,N,03922.87,E,0.x,x.x,240719,x.x,a,a*hh<CR><LF>
$GPRMC,084929.36,A,5166.33,N,03922.88,E,0.x,x.x,240719,x.x,a,a*hh<CR><LF>
$GPRMC,084930.33,A,5166.34,N,03922.88,E,0.x,x.x,240719,x.x,a,a*hh<CR><LF>
$GPRMC,084931.29,A,5166.34,N,03922.89,E,0.x,x.x,240719,x.x,a,a*hh<CR><LF>
$GPRMC,084932.26,A,5166.34,N,03922.90,E,0.x,x.x,240719,x.x,a,a*hh<CR><LF>
$GPRMC,084933.23,A,5166.35,N,03922.90,E,0.x,x.x,240719,x.x,a,a*hh<CR><LF>
$GPRMC,084934.19,A,5166.35,N,03922.91,E,0.x,x.x,240719,x.x,a,a*hh<CR><LF>
$GPRMC,084935.16,A,5166.35,N,03922.92,E,0.x,x.x,240719,x.x,a,a*hh<CR><LF>
$GPRMC,084936.13,A,5166.36,N,03922.92,E,0.x,x.x,240719,x.x,a,a*hh<CR><LF>
$GPRMC,084937.10,A,5166.36,N,03922.93,E,0.x,x.x,240719,x.x,a,a*hh<CR><LF>
$GPRMC,084938.06,A,5166.36,N,03922.94,E,0.x,x.x,240719,x.x,a,a*hh<CR><LF>
$GPRMC,084939.03,A,5166.37,N,03922.94,E,0.x,x.x,240719,x.x,a,a*hh<CR><LF>
$GPRMC,084940.00,A,5166.37,N,03922.95,E,0.x,x.x,240719,x.x,a,a*hh<CR><LF>
$GPRMC,084940.98,A,5166.37,N,03922.96,E,0.x,x.x,240719,x.x,a,a*hh<CR><LF>
$GPRMC,084941.94,A,5166.37,N,03922.97,E,0.x,x.x,240719,x.x,a,a*hh<CR><LF>
$GPRMC,084942.91,A,5166.38,N,03922.97,E,0.x,x.x,240719,x.x,a,a*hh<CR><LF>
$GPRMC,084943.88,A,5166.38,N,03922.98,E,0.x,x.x,240719,x.x,a,a*hh<CR><LF>
$GPRMC,084944.85,A,5166.38,N,03922.99,E,0.x,x.x,240719,x.x,a,a*hh<CR><LF>
$GPRMC,084945.81,A,5166.39,N,03922.99,E,0.x,x.x,240719,x.x,a,a*hh<CR><LF>
$GPRMC,084946.78,A,5166.39,N,03923.00,E,0.x,x.x,240719,x.x,a,a*hh<CR><LF>
$GPRMC,084947.74,A,5166.39,N,03923.01,E,0.x,x.x,240719,x.x,a,a*hh<CR><LF>
$GPRMC,084948.71,A,5166.40,N,03923.01,E,0.x,x.x,240719,x.x,a,a*hh<CR><LF>
$GPRMC,084949.68,A,5166.40,N,03923.02,E,0.x,x.x,240719,x.x,a,a*hh<CR><LF>
$GPRMC,084950.64,A,5166.40,N,03923.03,E,0.x,x.x,240719,x.x,a,a*hh<CR><LF>
$GPRMC,084951.61,A,5166.41,N,03923.03,E,0.x,x.x,240719,x.x,a,a*hh<CR><LF>
$GPRMC,084952.58,A,5166.41,N,03923.04,E,0.x,x.x,240719,x.x,a,a*hh<CR><LF>
$GPRMC,084953.55,A,5166.41,N,03923.05,E,0.x,x.x,240719,x.x,a,a*hh<CR><LF>
$GPRMC,084954.52,A,5166.42,N,03923.05,E,0.x,x.x,240719,x.x,a,a*hh<CR><LF>
$GPRMC,084955.48,A,5166.42,N,03923.06,E,0.x,x.x,240719,x.x,a,a*hh<CR><LF>
$GPRMC,084956.45,A,5166.42,N,03923.07,E,0.x,x.x,240719,x.x,a,a*hh<CR><LF>
$GPRMC,084957.41,A,5166.43,N,03923.07,E,0.x,x.x,240719,x.x,a,a*hh<CR><LF>
$GPRMC,084958.38,A,5166.43,N,03923.08,E,0.x,x.x,240719,x.x,a,a*hh<CR><LF>
$GPRMC,084959.35,A,5166.43,N,03923.09,E,0.x,x.x,240719,x.x,a,a*hh<CR><LF>
$GPRMC,085000.31,A,5166.44,N,03923.09,E,0.x,x.x,240719,x.x,a,a*hh<CR><LF>
$GPRMC,085001.28,A,5166.44,N,03923.10,E,0.x,x.x,240719,x.x,a,a*hh<CR><LF>
$GPRMC,085002.25,A,5166.44,N,03923.11,E,0.x,x.x,240719,x.x,a,a*hh<CR><LF>
$GPRMC,085003.26,A,5166.45,N,03923.11,E,0.x,x.x,240719,x.x,a,a*hh<CR><LF>
$GPRMC,085004.23,A,5166.45,N,03923.12,E,0.x,x.x,240719,x.x,a,a*hh<CR><LF>
$GPRMC,085005.19,A,5166.45,N,03923.13,E,0.x,x.x,240719,x.x,a,a*hh<CR><LF>
$GPRMC,085006.16,A,5166.46,N,03923.13,E,0.x,x.x,240719,x.x,a,a*hh<CR><LF>
$GPRMC,085007.13,A,5166.46,N,03923.14,E,0.x,x.x,240719,x.x,a,a*hh<CR><LF>
$GPRMC,085008.09,A,5166.46,N,03923.15,E,0.x,x.x,240719,x.x,a,a*hh<CR><LF>
$GPRMC,085009.06,A,5166.47,N,03923.15,E,0.x,x.x,240719,x.x,a,a*hh<CR><LF>
$GPRMC,085010.03,A,5166.47,N,03923.16,E,0.x,x.x,240719,x.x,a,a*hh<CR><LF>
$GPRMC,085010.99,A,5166.47,N,03923.17,E,0.x,x.x,240719,x.x,a,a*hh<CR><LF>
$GPRMC,085011.96,A,5166.47,N,03923.18,E,0.x,x.x,240719,x.x,a,a*hh<CR><LF>
$GPRMC,085012.93,A,5166.48,N,03923.18,E,0.x,x.x,240719,x.x,a,a*hh<CR><LF>
$GPRMC,085013.90,A,5166.48,N,03923.19,E,0.x,x.x,240719,x.x,a,a*hh<CR><LF>
$GPRMC,085014.86,A,5166.48,N,03923.20,E,0.x,x.x,240719,x.x,a,a*hh<CR><LF>
$GPRMC,085015.83,A,5166.49,N,03923.20,E,0.x,x.x,240719,x.x,a,a*hh<CR><LF>
$GPRMC,085016.80,A,5166.49,N,03923.21,E,0.x,x.x,240719,x.x,a,a*hh<CR><LF>
$GPRMC,085017.77,A,5166.49,N,03923.22,E,0.x,x.x,240719,x.x,a,a*hh<CR><LF>
$GPRMC,085018.74,A,5166.50,N,03923.22,E,0.x,x.x,240719,x.x,a,a*hh<CR><LF>
$GPRMC,085019.70,A,5166.50,N,03923.23,E,0.x,x.x,240719,x.x,a,a*hh<CR><LF>
$GPRMC,085020.67,A,5166.50,N,03923.24,E,0.x,x.x,240719,x.x,a,a*hh<CR><LF>
$GPRMC,085021.64,A,5166.51,N,03923.24,E,0.x,x.x,240719,x.x,a,a*hh<CR><LF>
$GPRMC,085022.61,A,5166.51,N,03923.25,E,0.x,x.x,240719,x.x,a,a*hh<CR><LF>
$GPRMC,085023.57,A,5166.51,N,03923.26,E,0.x,x.x,240719,x.x,a,a*hh<CR><LF>
$GPRMC,085024.54,A,5166.52,N,03923.26,E,0.x,x.x,240719,x.x,a,a*hh<CR><LF>
$GPRMC,085025.54,A,5166.52,N,03923.27,E,0.x,x.x,240719,x.x,a,a*hh<CR><LF>
$GPRMC,085026.50,A,5166.52,N,03923.28,E,0.x,x.x,240719,x.x,a,a*hh<CR><LF>
$GPRMC,085027.47,A,5166.53,N,03923.28,E,0.x,x.x,240719,x.x,a,a*hh<CR><LF>
$GPRMC,085028.44,A,5166.53,N,03923.29,E,0.x,x.x,240719,x.x,a,a*hh<CR><LF>
$GPRMC,085029.40,A,5166.53,N,03923.30,E,0.x,x.x,240719,x.x,a,a*hh<CR><LF>
$GPRMC,085030.37,A,5166.54,N,03923.30,E,0.x,x.x,240719,x.x,a,a*hh<CR><LF>
$GPRMC,085031.34,A,5166.54,N,03923.31,E,0.x,x.x,240719,x.x,a,a*hh<CR><LF>
$GPRMC,085032.30,A,5166.54,N,03923.32,E,0.x,x.x,240719,x.x,a,a*hh<CR><LF>
$GPRMC,085033.27,A,5166.55,N,03923.32,E,0.x,x.x,240719,x.x,a,a*hh<CR><LF>
$GPRMC,085034.24,A,5166.55,N,03923.33,E,0.x,x.x,240719,x.x,a,a*hh<CR><LF>
$GPRMC,085035.20,A,5166.55,N,03923.34,E,0.x,x.x,240719,x.x,a,a*hh<CR><LF>
$GPRMC,085036.20,A,5166.56,N,03923.34,E,0.x,x.x,240719,x.x,a,a*hh<CR><LF>
$GPRMC,085037.17,A,5166.56,N,03923.35,E,0.x,x.x,240719,x.x,a,a*hh<CR><LF>
$GPRMC,085038.14,A,5166.56,N,03923.36,E,0.x,x.x,240719,x.x,a,a*hh<CR><LF>
$GPRMC,085039.10,A,5166.57,N,03923.36,E,0.x,x.x,240719,x.x,a,a*hh<CR><LF>
$GPRMC,085040.07,A,5166.57,N,03923.37,E,0.x,x.x,240719,x.x,a,a*hh<CR><LF>
$GPRMC,085041.04,A,5166.57,N,03923.38,E,0.x,x.x,240719,x.x,a,a*hh<CR><LF>
$GPRMC,085042.01,A,5166.58,N,03923.38,E,0.x,x.x,240719,x.x,a,a*hh<CR><LF>
$GPRMC,085042.97,A,5166.59,N,03923.38,E,0.x,x.x,240719,x.x,a,a*hh<CR><LF>
$GPRMC,085043.94,A,5166.59,N,03923.39,E,0.x,x.x,240719,x.x,a,a*hh<CR><LF>
$GPRMC,085044.91,A,5166.59,N,03923.40,E,0.x,x.x,240719,x.x,a,a*hh<CR><LF>
$GPRMC,085045.87,A,5166.60,N,03923.40,E,0.x,x.x,240719,x.x,a,a*hh<CR><LF>
$GPRMC,085046.84,A,5166.60,N,03923.41,E,0.x,x.x,240719,x.x,a,a*hh<CR><LF>
$GPRMC,085047.85,A,5166.60,N,03923.42,E,0.x,x.x,240719,x.x,a,a*hh<CR><LF>
$GPRMC,085048.82,A,5166.61,N,03923.42,E,0.x,x.x,240719,x.x,a,a*hh<CR><LF>
$GPRMC,085049.79,A,5166.61,N,03923.43,E,0.x,x.x,240719,x.x,a,a*hh<CR><LF>
$GPRMC,085050.75,A,5166.61,N,03923.44,E,0.x,x.x,240719,x.x,a,a*hh<CR><LF>
$GPRMC,085051.72,A,5166.62,N,03923.44,E,0.x,x.x,240719,x.x,a,a*hh<CR><LF>
$GPRMC,085052.69,A,5166.62,N,03923.45,E,0.x,x.x,240719,x.x,a,a*hh<CR><LF>
$GPRMC,085053.65,A,5166.62,N,03923.46,E,0.x,x.x,240719,x.x,a,a*hh<CR><LF>
$GPRMC,085054.62,A,5166.63,N,03923.46,E,0.x,x.x,240719,x.x,a,a*hh<CR><LF>
$GPRMC,085055.59,A,5166.63,N,03923.47,E,0.x,x.x,240719,x.x,a,a*hh<CR><LF>
$GPRMC,085056.56,A,5166.63,N,03923.48,E,0.x,x.x,240719,x.x,a,a*hh<CR><LF>
$GPRMC,085057.52,A,5166.64,N,03923.48,E,0.x,x.x,240719,x.x,a,a*hh<CR><LF>
$GPRMC,085058.49,A,5166.64,N,03923.49,E,0.x,x.x,240719,x.x,a,a*hh<CR><LF>
$GPRMC,085059.46,A,5166.64,N,03923.50,E,0.x,x.x,240719,x.x,a,a*hh<CR><LF>
$GPRMC,085100.42,A,5166.65,N,03923.50,E,0.x,x.x,240719,x.x,a,a*hh<CR><LF>
$GPRMC,085101.39,A,5166.66,N,03923.50,E,0.x,x.x,240719,x.x,a,a*hh<CR><LF>
$GPRMC,085102.36,A,5166.67,N,03923.50,E,0.x,x.x,240719,x.x,a,a*hh<CR><LF>
$GPRMC,085103.32,A,5166.68,N,03923.50,E,0.x,x.x,240719,x.x,a,a*hh<CR><LF>
$GPRMC,085104.29,A,5166.69,N,03923.50,E,0.x,x.x,240719,x.x,a,a*hh<CR><LF>
$GPRMC,085105.26,A,5166.70,N,03923.50,E,0.x,x.x,240719,x.x,a,a*hh<CR><LF>
$GPRMC,085106.22,A,5166.71,N,03923.50,E,0.x,x.x,240719,x.x,a,a*hh<CR><LF>
$GPRMC,085107.19,A,5166.72,N,03923.50,E,0.x,x.x,240719,x.x,a,a*hh<CR><LF>
$GPRMC,085108.16,A,5166.73,N,03923.50,E,0.x,x.x,240719,x.x,a,a*hh<CR><LF>
$GPRMC,085109.12,A,5166.74,N,03923.50,E,0.x,x.x,240719,x.x,a,a*hh<CR><LF>
$GPRMC,085110.09,A,5166.75,N,03923.50,E,0.x,x.x,240719,x.x,a,a*hh<CR><LF>
$GPRMC,085111.06,A,5166.76,N,03923.50,E,0.x,x.x,240719,x.x,a,a*hh<CR><LF>
$GPRMC,085112.02,A,5166.77,N,03923.50,E,0.x,x.x,240719,x.x,a,a*hh<CR><LF>
$GPRMC,085112.99,A,5166.78,N,03923.50,E,0.x,x.x,240719,x.x,a,a*hh<CR><LF>
$GPRMC,085113.96,A,5166.79,N,03923.50,E,0.x,x.x,240719,x.x,a,a*hh<CR><LF>
$GPRMC,085114.92,A,5166.80,N,03923.50,E,0.x,x.x,240719,x.x,a,a*hh<CR><LF>
$GPRMC,085115.89,A,5166.81,N,03923.50,E,0.x,x.x,240719,x.x,a,a*hh<CR><LF>
$GPRMC,085116.89,A,5166.82,N,03923.50,E,0.x,x.x,240719,x.x,a,a*hh<CR><LF>
$GPRMC,085117.86,A,5166.83,N,03923.50,E,0.x,x.x,240719,x.x,a,a*hh<CR><LF>
$GPRMC,085118.82,A,5166.84,N,03923.50,E,0.x,x.x,240719,x.x,a,a*hh<CR><LF>
$GPRMC,085119.79,A,5166.85,N,03923.50,E,0.x,x.x,240719,x.x,a,a*hh<CR><LF>
$GPRMC,085120.76,A,5166.86,N,03923.50,E,0.x,x.x,240719,x.x,a,a*hh<CR><LF>
$GPRMC,085121.72,A,5166.87,N,03923.50,E,0.x,x.x,240719,x.x,a,a*hh<CR><LF>
$GPRMC,085122.69,A,5166.88,N,03923.50,E,0.x,x.x,240719,x.x,a,a*hh<CR><LF>
$GPRMC,085123.66,A,5166.89,N,03923.50,E,0.x,x.x,240719,x.x,a,a*hh<CR><LF>
$GPRMC,085124.62,A,5166.90,N,03923.50,E,0.x,x.x,240719,x.x,a,a*hh<CR><LF>
$GPRMC,085125.59,A,5166.91,N,03923.50,E,0.x,x.x,240719,x.x,a,a*hh<CR><LF>
$GPRMC,085126.56,A,5166.92,N,03923.50,E,0.x,x.x,240719,x.x,a,a*hh<CR><LF>
$GPRMC,085127.52,A,5166.93,N,03923.50,E,0.x,x.x,240719,x.x,a,a*hh<CR><LF>
$GPRMC,085128.49,A,5166.94,N,03923.50,E,0.x,x.x,240719,x.x,a,a*hh<CR><LF>
$GPRMC,085129.46,A,5166.95,N,03923.50,E,0.x,x.x,240719,x.x,a,a*hh<CR><LF>
$GPRMC,085130.44,A,5166.96,N,03923.50,E,0.x,x.x,240719,x.x,a,a*hh<CR><LF>
$GPRMC,085131.41,A,5166.97,N,03923.50,E,0.x,x.x,240719,x.x,a,a*hh<CR><LF>
$GPRMC,085132.38,A,5166.98,N,03923.50,E,0.x,x.x,240719,x.x,a,a*hh<CR><LF>
$GPRMC,085133.35,A,5166.99,N,03923.50,E,0.x,x.x,240719,x.x,a,a*hh<CR><LF>
$GPRMC,085134.32,A,5167.00,N,03923.50,E,0.x,x.x,240719,x.x,a,a*hh<CR><LF>
$GPRMC,085135.28,A,5167.01,N,03923.50,E,0.x,x.x,240719,x.x,a,a*hh<CR><LF>
$GPRMC,085136.25,A,5167.02,N,03923.50,E,0.x,x.x,240719,x.x,a,a*hh<CR><LF>
$GPRMC,085137.22,A,5167.03,N,03923.50,E,0.x,x.x,240719,x.x,a,a*hh<CR><LF>
$GPRMC,085138.18,A,5167.04,N,03923.50,E,0.x,x.x,240719,x.x,a,a*hh<CR><LF>
$GPRMC,085139.15,A,5167.05,N,03923.50,E,0.x,x.x,240719,x.x,a,a*hh<CR><LF>
$GPRMC,085140.12,A,5167.06,N,03923.50,E,0.x,x.x,240719,x.x,a,a*hh<CR><LF>
$GPRMC,085141.08,A,5167.07,N,03923.50,E,0.x,x.x,240719,x.x,a,a*hh<CR><LF>
$GPRMC,085142.05,A,5167.08,N,03923.50,E,0.x,x.x,240719,x.x,a,a*hh<CR><LF>
$GPRMC,085143.01,A,5167.09,N,03923.50,E,0.x,x.x,240719,x.x,a,a*hh<CR><LF>
$GPRMC,085143.98,A,5167.10,N,03923.50,E,0.x,x.x,240719,x.x,a,a*hh<CR><LF>
$GPRMC,085144.99,A,5167.11,N,03923.50,E,0.x,x.x,240719,x.x,a,a*hh<CR><LF>
$GPRMC,085145.95,A,5167.11,N,03923.50,E,0.x,x.x,240719,x.x,a,a*hh<CR><LF>
$GPRMC,085146.92,A,5167.12,N,03923.50,E,0.x,x.x,240719,x.x,a,a*hh<CR><LF>
$GPRMC,085147.89,A,5167.13,N,03923.50,E,0.x,x.x,240719,x.x,a,a*hh<CR><LF>
$GPRMC,085148.85,A,5167.14,N,03923.50,E,0.x,x.x,240719,x.x,a,a*hh<CR><LF>
$GPRMC,085149.82,A,5167.15,N,03923.50,E,0.x,x.x,240719,x.x,a,a*hh<CR><LF>
$GPRMC,085150.79,A,5167.16,N,03923.50,E,0.x,x.x,240719,x.x,a,a*hh<CR><LF>
$GPRMC,085151.76,A,5167.17,N,03923.50,E,0.x,x.x,240719,x.x,a,a*hh<CR><LF>
$GPRMC,085152.72,A,5167.18,N,03923.50,E,0.x,x.x,240719,x.x,a,a*hh<CR><LF>
$GPRMC,085153.69,A,5167.19,N,03923.50,E,0.x,x.x,240719,x.x,a,a*hh<CR><LF>
$GPRMC,085154.66,A,5167.20,N,03923.50,E,0.x,x.x,240719,x.x,a,a*hh<CR><LF>
$GPRMC,085544.05,A,5165.91,N,03922.69,E,0.x,x.x,240719,x.x,a,a*hh<CR><LF>
$GPRMC,085545.02,A,5165.92,N,03922.69,E,0.x,x.x,240719,x.x,a,a*hh<CR><LF>
$GPRMC,085545.98,A,5165.93,N,03922.69,E,0.x,x.x,240719,x.x,a,a*hh<CR><LF>
$GPRMC,085546.95,A,5165.93,N,03922.70,E,0.x,x.x,240719,x.x,a,a*hh<CR><LF>
$GPRMC,085547.92,A,5165.93,N,03922.71,E,0.x,x.x,240719,x.x,a,a*hh<CR><LF>
$GPRMC,085548.88,A,5165.94,N,03922.71,E,0.x,x.x,240719,x.x,a,a*hh<CR><LF>
$GPRMC,085549.85,A,5165.94,N,03922.72,E,0.x,x.x,240719,x.x,a,a*hh<CR><LF>
$GPRMC,085550.82,A,5165.94,N,03922.73,E,0.x,x.x,240719,x.x,a,a*hh<CR><LF>
$GPRMC,085551.79,A,5165.95,N,03922.73,E,0.x,x.x,240719,x.x,a,a*hh<CR><LF>
$GPRMC,085552.75,A,5165.95,N,03922.74,E,0.x,x.x,240719,x.x,a,a*hh<CR><LF>
$GPRMC,085553.72,A,5165.95,N,03922.75,E,0.x,x.x,240719,x.x,a,a*hh<CR><LF>
$GPRMC,085554.69,A,5165.96,N,03922.75,E,0.x,x.x,240719,x.x,a,a*hh<CR><LF>
$GPRMC,085555.66,A,5165.96,N,03922.76,E,0.x,x.x,240719,x.x,a,a*hh<CR><LF>
$GPRMC,085556.63,A,5165.96,N,03922.77,E,0.x,x.x,240719,x.x,a,a*hh<CR><LF>
$GPRMC,085557.60,A,5165.97,N,03922.77,E,0.x,x.x,240719,x.x,a,a*hh<CR><LF>
$GPRMC,085558.56,A,5165.97,N,03922.78,E,0.x,x.x,240719,x.x,a,a*hh<CR><LF>
$GPRMC,085559.53,A,5165.97,N,03922.79,E,0.x,x.x,240719,x.x,a,a*hh<CR><LF>
$GPRMC,085600.50,A,5165.98,N,03922.79,E,0.x,x.x,240719,x.x,a,a*hh<CR><LF>
$GPRMC,085601.47,A,5165.98,N,03922.80,E,0.x,x.x,240719,x.x,a,a*hh<CR><LF>
$GPRMC,085602.44,A,5165.98,N,03922.81,E,0.x,x.x,240719,x.x,a,a*hh<CR><LF>
$GPRMC,085603.41,A,5165.99,N,03922.81,E,0.x,x.x,240719,x.x,a,a*hh<CR><LF>
$GPRMC,085604.38,A,5165.99,N,03922.82,E,0.x,x.x,240719,x.x,a,a*hh<CR><LF>
$GPRMC,085605.34,A,5165.99,N,03922.83,E,0.x,x.x,240719,x.x,a,a*hh<CR><LF>
$GPRMC,085606.31,A,5166.00,N,03922.83,E,0.x,x.x,240719,x.x,a,a*hh<CR><LF>
$GPRMC,085607.28,A,5166.00,N,03922.84,E,0.x,x.x,240719,x.x,a,a*hh<CR><LF>
$GPRMC,085608.25,A,5166.00,N,03922.85,E,0.x,x.x,240719,x.x,a,a*hh<CR><LF>
$GPRMC,085609.22,A,5166.01,N,03922.85,E,0.x,x.x,240719,x.x,a,a*hh<CR><LF>
$GPRMC,085610.18,A,5166.01,N,03922.86,E,0.x,x.x,240719,x.x,a,a*hh<CR><LF>
$GPRMC,085611.15,A,5166.01,N,03922.87,E,0.x,x.x,240719,x.x,a,a*hh<CR><LF>
$GPRMC,085612.12,A,5166.02,N,03922.87,E,0.x,x.x,240719,x.x,a,a*hh<CR><LF>
$GPRMC,085613.08,A,5166.02,N,03922.88,E,0.x,x.x,240719,x.x,a,a*hh<CR><LF>
$GPRMC,085614.05,A,5166.02,N,03922.89,E,0.x,x.x,240719,x.x,a,a*hh<CR><LF>
$GPRMC,085615.02,A,5166.03,N,03922.89,E,0.x,x.x,240719,x.x,a,a*hh<CR><LF>
$GPRMC,085615.99,A,5166.04,N,03922.89,E,0.x,x.x,240719,x.x,a,a*hh<CR><LF>
$GPRMC,085616.95,A,5166.04,N,03922.90,E,0.x,x.x,240719,x.x,a,a*hh<CR><LF>
$GPRMC,085617.92,A,5166.04,N,03922.91,E,0.x,x.x,240719,x.x,a,a*hh<CR><LF>
$GPRMC,085618.89,A,5166.05,N,03922.91,E,0.x,x.x,240719,x.x,a,a*hh<CR><LF>
$GPRMC,085619.86,A,5166.05,N,03922.92,E,0.x,x.x,240719,x.x,a,a*hh<CR><LF>
$GPRMC,085620.82,A,5166.05,N,03922.93,E,0.x,x.x,240719,x.x,a,a*hh<CR><LF>
$GPRMC,085621.79,A,5166.06,N,03922.93,E,0.x,x.x,240719,x.x,a,a*hh<CR><LF>
$GPRMC,085622.76,A,5166.06,N,03922.94,E,0.x,x.x,240719,x.x,a,a*hh<CR><LF>
$GPRMC,085623.72,A,5166.06,N,03922.95,E,0.x,x.x,240719,x.x,a,a*hh<CR><LF>
$GPRMC,085624.69,A,5166.07,N,03922.95,E,0.x,x.x,240719,x.x,a,a*hh<CR><LF>
$GPRMC,085625.66,A,5166.07,N,03922.96,E,0.x,x.x,240719,x.x,a,a*hh<CR><LF>
$GPRMC,085626.63,A,5166.07,N,03922.97,E,0.x,x.x,240719,x.x,a,a*hh<CR><LF>
$GPRMC,085627.60,A,5166.08,N,03922.97,E,0.x,x.x,240719,x.x,a,a*hh<CR><LF>
$GPRMC,085628.56,A,5166.08,N,03922.98,E,0.x,x.x,240719,x.x,a,a*hh<CR><LF>
$GPRMC,091334.86,A,5165.91,N,03922.69,E,0.x,x.x,240719,x.x,a,a*hh<CR><LF>
$GPRMC,091335.83,A,5165.91,N,03922.70,E,0.x,x.x,240719,x.x,a,a*hh<CR><LF>
$GPRMC,091336.79,A,5165.92,N,03922.70,E,0.x,x.x,240719,x.x,a,a*hh<CR><LF>
$GPRMC,091337.76,A,5165.92,N,03922.71,E,0.x,x.x,240719,x.x,a,a*hh<CR><LF>
$GPRMC,091338.73,A,5165.92,N,03922.72,E,0.x,x.x,240719,x.x,a,a*hh<CR><LF>
$GPRMC,091339.69,A,5165.93,N,03922.72,E,0.x,x.x,240719,x.x,a,a*hh<CR><LF>
$GPRMC,091340.66,A,5165.93,N,03922.73,E,0.x,x.x,240719,x.x,a,a*hh<CR><LF>
$GPRMC,091341.63,A,5165.93,N,03922.74,E,0.x,x.x,240719,x.x,a,a*hh<CR><LF>
$GPRMC,091342.60,A,5165.94,N,03922.74,E,0.x,x.x,240719,x.x,a,a*hh<CR><LF>
$GPRMC,091343.56,A,5165.94,N,03922.75,E,0.x,x.x,240719,x.x,a,a*hh<CR><LF>
$GPRMC,091344.53,A,5165.94,N,03922.76,E,0.x,x.x,240719,x.x,a,a*hh<CR><LF>
$GPRMC,091345.50,A,5165.95,N,03922.76,E,0.x,x.x,240719,x.x,a,a*hh<CR><LF>
$GPRMC,091346.50,A,5165.95,N,03922.77,E,0.x,x.x,240719,x.x,a,a*hh<CR><LF>
$GPRMC,091347.47,A,5165.95,N,03922.78,E,0.x,x.x,240719,x.x,a,a*hh<CR><LF>
$GPRMC,091348.44,A,5165.96,N,03922.78,E,0.x,x.x,240719,x.x,a,a*hh<CR><LF>
$GPRMC,091349.40,A,5165.96,N,03922.79,E,0.x,x.x,240719,x.x,a,a*hh<CR><LF>
$GPRMC,091350.37,A,5165.96,N,03922.80,E,0.x,x.x,240719,x.x,a,a*hh<CR><LF>
$GPRMC,091351.34,A,5165.97,N,03922.80,E,0.x,x.x,240719,x.x,a,a*hh<CR><LF>
$GPRMC,091352.30,A,5165.97,N,03922.81,E,0.x,x.x,240719,x.x,a,a*hh<CR><LF>
$GPRMC,091353.27,A,5165.97,N,03922.82,E,0.x,x.x,240719,x.x,a,a*hh<CR><LF>
$GPRMC,091354.24,A,5165.98,N,03922.82,E,0.x,x.x,240719,x.x,a,a*hh<CR><LF>
$GPRMC,091355.21,A,5165.98,N,03922.83,E,0.x,x.x,240719,x.x,a,a*hh<CR><LF>
$GPRMC,091356.17,A,5165.98,N,03922.84,E,0.x,x.x,240719,x.x,a,a*hh<CR><LF>
$GPRMC,091357.14,A,5165.99,N,03922.84,E,0.x,x.x,240719,x.x,a,a*hh<CR><LF>
$GPRMC,091358.11,A,5165.99,N,03922.85,E,0.x,x.x,240719,x.x,a,a*hh<CR><LF>
$GPRMC,091359.07,A,5165.99,N,03922.86,E,0.x,x.x,240719,x.x,a,a*hh<CR><LF>
$GPRMC,091400.04,A,5166.00,N,03922.86,E,0.x,x.x,240719,x.x,a,a*hh<CR><LF>
$GPRMC,091401.03,A,5166.00,N,03922.87,E,0.x,x.x,240719,x.x,a,a*hh<CR><LF>
$GPRMC,091402.00,A,5166.00,N,03922.88,E,0.x,x.x,240719,x.x,a,a*hh<CR><LF>
$GPRMC,091402.97,A,5166.00,N,03922.89,E,0.x,x.x,240719,x.x,a,a*hh<CR><LF>
$GPRMC,091403.93,A,5166.01,N,03922.89,E,0.x,x.x,240719,x.x,a,a*hh<CR><LF>
$GPRMC,091404.90,A,5166.01,N,03922.90,E,0.x,x.x,240719,x.x,a,a*hh<CR><LF>
$GPRMC,091405.87,A,5166.01,N,03922.91,E,0.x,x.x,240719,x.x,a,a*hh<CR><LF>
$GPRMC,091406.83,A,5166.02,N,03922.91,E,0.x,x.x,240719,x.x,a,a*hh<CR><LF>
$GPRMC,091407.80,A,5166.02,N,03922.92,E,0.x,x.x,240719,x.x,a,a*hh<CR><LF>
$GPRMC,091408.76,A,5166.02,N,03922.93,E,0.x,x.x,240719,x.x,a,a*hh<CR><LF>
$GPRMC,091409.73,A,5166.03,N,03922.93,E,0.x,x.x,240719,x.x,a,a*hh<CR><LF>
$GPRMC,091410.70,A,5166.03,N,03922.94,E,0.x,x.x,240719,x.x,a,a*hh<CR><LF>
$GPRMC,091411.66,A,5166.03,N,03922.95,E,0.x,x.x,240719,x.x,a,a*hh<CR><LF>
$GPRMC,091412.63,A,5166.04,N,03922.95,E,0.x,x.x,240719,x.x,a,a*hh<CR><LF>
$GPRMC,091413.60,A,5166.04,N,03922.96,E,0.x,x.x,240719,x.x,a,a*hh<CR><LF>
$GPRMC,091414.56,A,5166.04,N,03922.97,E,0.x,x.x,240719,x.x,a,a*hh<CR><LF>
$GPRMC,091415.53,A,5166.05,N,03922.97,E,0.x,x.x,240719,x.x,a,a*hh<CR><LF>
$GPRMC,091416.50,A,5166.05,N,03922.98,E,0.x,x.x,240719,x.x,a,a*hh<CR><LF>
$GPRMC,091417.47,A,5166.05,N,03922.99,E,0.x,x.x,240719,x.x,a,a*hh<CR><LF>
$GPRMC,091418.43,A,5166.06,N,03922.99,E,0.x,x.x,240719,x.x,a,a*hh<CR><LF>
$GPRMC,091419.40,A,5166.06,N,03923.00,E,0.x,x.x,240719,x.x,a,a*hh<CR><LF>
$GPRMC,091420.37,A,5166.06,N,03923.01,E,0.x,x.x,240719,x.x,a,a*hh<CR><LF>
$GPRMC,091421.33,A,5166.07,N,03923.01,E,0.x,x.x,240719,x.x,a,a*hh<CR><LF>
$GPRMC,091722.49,A,5165.91,N,03922.69,E,0.x,x.x,240719,x.x,a,a*hh<CR><LF>
$GPRMC,091723.46,A,5165.91,N,03922.70,E,0.x,x.x,240719,x.x,a,a*hh<CR><LF>
$GPRMC,091724.43,A,5165.92,N,03922.70,E,0.x,x.x,240719,x.x,a,a*hh<CR><LF>
$GPRMC,091725.39,A,5165.92,N,03922.71,E,0.x,x.x,240719,x.x,a,a*hh<CR><LF>
$GPRMC,091726.36,A,5165.92,N,03922.72,E,0.x,x.x,240719,x.x,a,a*hh<CR><LF>
$GPRMC,091727.33,A,5165.93,N,03922.72,E,0.x,x.x,240719,x.x,a,a*hh<CR><LF>
$GPRMC,091728.30,A,5165.93,N,03922.73,E,0.x,x.x,240719,x.x,a,a*hh<CR><LF>
$GPRMC,091729.26,A,5165.93,N,03922.74,E,0.x,x.x,240719,x.x,a,a*hh<CR><LF>
$GPRMC,091730.23,A,5165.94,N,03922.74,E,0.x,x.x,240719,x.x,a,a*hh<CR><LF>
$GPRMC,091731.20,A,5165.94,N,03922.75,E,0.x,x.x,240719,x.x,a,a*hh<CR><LF>
$GPRMC,091732.16,A,5165.94,N,03922.76,E,0.x,x.x,240719,x.x,a,a*hh<CR><LF>
$GPRMC,091733.14,A,5165.95,N,03922.76,E,0.x,x.x,240719,x.x,a,a*hh<CR><LF>
$GPRMC,091734.11,A,5165.95,N,03922.77,E,0.x,x.x,240719,x.x,a,a*hh<CR><LF>
$GPRMC,091735.08,A,5165.95,N,03922.78,E,0.x,x.x,240719,x.x,a,a*hh<CR><LF>
$GPRMC,091736.04,A,5165.96,N,03922.78,E,0.x,x.x,240719,x.x,a,a*hh<CR><LF>
$GPRMC,091737.01,A,5165.96,N,03922.79,E,0.x,x.x,240719,x.x,a,a*hh<CR><LF>
$GPRMC,091737.98,A,5165.96,N,03922.80,E,0.x,x.x,240719,x.x,a,a*hh<CR><LF>
$GPRMC,091738.95,A,5165.96,N,03922.81,E,0.x,x.x,240719,x.x,a,a*hh<CR><LF>
$GPRMC,091739.91,A,5165.97,N,03922.81,E,0.x,x.x,240719,x.x,a,a*hh<CR><LF>
$GPRMC,091740.88,A,5165.97,N,03922.82,E,0.x,x.x,240719,x.x,a,a*hh<CR><LF>
$GPRMC,091741.85,A,5165.97,N,03922.83,E,0.x,x.x,240719,x.x,a,a*hh<CR><LF>
$GPRMC,091742.81,A,5165.98,N,03922.83,E,0.x,x.x,240719,x.x,a,a*hh<CR><LF>
$GPRMC,091743.78,A,5165.98,N,03922.84,E,0.x,x.x,240719,x.x,a,a*hh<CR><LF>
$GPRMC,091744.75,A,5165.98,N,03922.85,E,0.x,x.x,240719,x.x,a,a*hh<CR><LF>
$GPRMC,091745.71,A,5165.99,N,03922.85,E,0.x,x.x,240719,x.x,a,a*hh<CR><LF>
$GPRMC,091746.68,A,5165.99,N,03922.86,E,0.x,x.x,240719,x.x,a,a*hh<CR><LF>
$GPRMC,091747.64,A,5165.99,N,03922.87,E,0.x,x.x,240719,x.x,a,a*hh<CR><LF>
$GPRMC,091748.61,A,5166.00,N,03922.87,E,0.x,x.x,240719,x.x,a,a*hh<CR><LF>
$GPRMC,091749.58,A,5166.00,N,03922.88,E,0.x,x.x,240719,x.x,a,a*hh<CR><LF>
$GPRMC,091750.57,A,5166.00,N,03922.89,E,0.x,x.x,240719,x.x,a,a*hh<CR><LF>
$GPRMC,092024.73,A,5165.92,N,03922.68,E,0.x,x.x,240719,x.x,a,a*hh<CR><LF>
$GPRMC,092025.71,A,5165.92,N,03922.69,E,0.x,x.x,240719,x.x,a,a*hh<CR><LF>
$GPRMC,092026.68,A,5165.92,N,03922.70,E,0.x,x.x,240719,x.x,a,a*hh<CR><LF>
$GPRMC,092027.64,A,5165.93,N,03922.70,E,0.x,x.x,240719,x.x,a,a*hh<CR><LF>
$GPRMC,092028.62,A,5165.93,N,03922.71,E,0.x,x.x,240719,x.x,a,a*hh<CR><LF>
$GPRMC,092029.58,A,5165.93,N,03922.72,E,0.x,x.x,240719,x.x,a,a*hh<CR><LF>
$GPRMC,092030.55,A,5165.94,N,03922.72,E,0.x,x.x,240719,x.x,a,a*hh<CR><LF>
$GPRMC,092031.52,A,5165.94,N,03922.73,E,0.x,x.x,240719,x.x,a,a*hh<CR><LF>
$GPRMC,092032.48,A,5165.94,N,03922.74,E,0.x,x.x,240719,x.x,a,a*hh<CR><LF>
$GPRMC,092033.45,A,5165.95,N,03922.74,E,0.x,x.x,240719,x.x,a,a*hh<CR><LF>
$GPRMC,092034.42,A,5165.95,N,03922.75,E,0.x,x.x,240719,x.x,a,a*hh<CR><LF>
$GPRMC,092035.38,A,5165.95,N,03922.76,E,0.x,x.x,240719,x.x,a,a*hh<CR><LF>
$GPRMC,092036.35,A,5165.96,N,03922.76,E,0.x,x.x,240719,x.x,a,a*hh<CR><LF>
$GPRMC,092037.32,A,5165.96,N,03922.77,E,0.x,x.x,240719,x.x,a,a*hh<CR><LF>
$GPRMC,092038.28,A,5165.96,N,03922.78,E,0.x,x.x,240719,x.x,a,a*hh<CR><LF>
$GPRMC,092039.25,A,5165.97,N,03922.78,E,0.x,x.x,240719,x.x,a,a*hh<CR><LF>
$GPRMC,092040.22,A,5165.97,N,03922.79,E,0.x,x.x,240719,x.x,a,a*hh<CR><LF>
$GPRMC,092041.18,A,5165.97,N,03922.80,E,0.x,x.x,240719,x.x,a,a*hh<CR><LF>
$GPRMC,092042.15,A,5165.98,N,03922.80,E,0.x,x.x,240719,x.x,a,a*hh<CR><LF>
$GPRMC,092043.11,A,5165.98,N,03922.81,E,0.x,x.x,240719,x.x,a,a*hh<CR><LF>
$GPRMC,092044.08,A,5165.98,N,03922.82,E,0.x,x.x,240719,x.x,a,a*hh<CR><LF>
$GPRMC,092045.05,A,5165.99,N,03922.82,E,0.x,x.x,240719,x.x,a,a*hh<CR><LF>
$GPRMC,092046.01,A,5165.99,N,03922.83,E,0.x,x.x,240719,x.x,a,a*hh<CR><LF>
$GPRMC,092046.98,A,5165.99,N,03922.84,E,0.x,x.x,240719,x.x,a,a*hh<CR><LF>
$GPRMC,092047.95,A,5165.99,N,03922.85,E,0.x,x.x,240719,x.x,a,a*hh<CR><LF>
$GPRMC,092048.91,A,5166.00,N,03922.85,E,0.x,x.x,240719,x.x,a,a*hh<CR><LF>
$GPRMC,092049.88,A,5166.00,N,03922.86,E,0.x,x.x,240719,x.x,a,a*hh<CR><LF>
$GPRMC,092050.85,A,5166.00,N,03922.87,E,0.x,x.x,240719,x.x,a,a*hh<CR><LF>
$GPRMC,092051.82,A,5166.01,N,03922.87,E,0.x,x.x,240719,x.x,a,a*hh<CR><LF>
$GPRMC,092052.78,A,5166.01,N,03922.88,E,0.x,x.x,240719,x.x,a,a*hh<CR><LF>
$GPRMC,092053.75,A,5166.01,N,03922.89,E,0.x,x.x,240719,x.x,a,a*hh<CR><LF>
$GPRMC,092054.72,A,5166.02,N,03922.89,E,0.x,x.x,240719,x.x,a,a*hh<CR><LF>
$GPRMC,092055.68,A,5166.02,N,03922.90,E,0.x,x.x,240719,x.x,a,a*hh<CR><LF>
$GPRMC,092056.65,A,5166.02,N,03922.91,E,0.x,x.x,240719,x.x,a,a*hh<CR><LF>
$GPRMC,092057.62,A,5166.03,N,03922.91,E,0.x,x.x,240719,x.x,a,a*hh<CR><LF>
$GPRMC,092058.59,A,5166.03,N,03922.92,E,0.x,x.x,240719,x.x,a,a*hh<CR><LF>
$GPRMC,092059.55,A,5166.03,N,03922.93,E,0.x,x.x,240719,x.x,a,a*hh<CR><LF>
$GPRMC,092100.52,A,5166.04,N,03922.93,E,0.x,x.x,240719,x.x,a,a*hh<CR><LF>
$GPRMC,092101.49,A,5166.05,N,03922.93,E,0.x,x.x,240719,x.x,a,a*hh<CR><LF>
$GPRMC,092102.46,A,5166.06,N,03922.93,E,0.x,x.x,240719,x.x,a,a*hh<CR><LF>
$GPRMC,092103.42,A,5166.07,N,03922.93,E,0.x,x.x,240719,x.x,a,a*hh<CR><LF>
$GPRMC,092104.39,A,5166.08,N,03922.93,E,0.x,x.x,240719,x.x,a,a*hh<CR><LF>
$GPRMC,092105.36,A,5166.09,N,03922.93,E,0.x,x.x,240719,x.x,a,a*hh<CR><LF>
$GPRMC,092106.33,A,5166.10,N,03922.93,E,0.x,x.x,240719,x.x,a,a*hh<CR><LF>
$GPRMC,092107.30,A,5166.11,N,03922.93,E,0.x,x.x,240719,x.x,a,a*hh<CR><LF>
$GPRMC,092108.26,A,5166.12,N,03922.93,E,0.x,x.x,240719,x.x,a,a*hh<CR><LF>
$GPRMC,092109.23,A,5166.13,N,03922.93,E,0.x,x.x,240719,x.x,a,a*hh<CR><LF>
$GPRMC,092110.20,A,5166.14,N,03922.93,E,0.x,x.x,240719,x.x,a,a*hh<CR><LF>
$GPRMC,092111.16,A,5166.15,N,03922.93,E,0.x,x.x,240719,x.x,a,a*hh<CR><LF>
$GPRMC,092112.13,A,5166.16,N,03922.93,E,0.x,x.x,240719,x.x,a,a*hh<CR><LF>
$GPRMC,092113.10,A,5166.17,N,03922.93,E,0.x,x.x,240719,x.x,a,a*hh<CR><LF>
$GPRMC,092114.07,A,5166.18,N,03922.93,E,0.x,x.x,240719,x.x,a,a*hh<CR><LF>
$GPRMC,092115.04,A,5166.19,N,03922.93,E,0.x,x.x,240719,x.x,a,a*hh<CR><LF>
$GPRMC,092116.00,A,5166.20,N,03922.93,E,0.x,x.x,240719,x.x,a,a*hh<CR><LF>
$GPRMC,092116.97,A,5166.21,N,03922.93,E,0.x,x.x,240719,x.x,a,a*hh<CR><LF>
$GPRMC,092117.94,A,5166.22,N,03922.93,E,0.x,x.x,240719,x.x,a,a*hh<CR><LF>
$GPRMC,092118.90,A,5166.23,N,03922.93,E,0.x,x.x,240719,x.x,a,a*hh<CR><LF>
$GPRMC,092119.87,A,5166.24,N,03922.93,E,0.x,x.x,240719,x.x,a,a*hh<CR><LF>
$GPRMC,092120.84,A,5166.25,N,03922.93,E,0.x,x.x,240719,x.x,a,a*hh<CR><LF>
$GPRMC,092121.80,A,5166.26,N,03922.93,E,0.x,x.x,240719,x.x,a,a*hh<CR><LF>
$GPRMC,092122.77,A,5166.27,N,03922.93,E,0.x,x.x,240719,x.x,a,a*hh<CR><LF>
$GPRMC,092123.74,A,5166.28,N,03922.93,E,0.x,x.x,240719,x.x,a,a*hh<CR><LF>
$GPRMC,092124.70,A,5166.29,N,03922.93,E,0.x,x.x,240719,x.x,a,a*hh<CR><LF>
$GPRMC,092125.67,A,5166.30,N,03922.93,E,0.x,x.x,240719,x.x,a,a*hh<CR><LF>
$GPRMC,092126.64,A,5166.31,N,03922.93,E,0.x,x.x,240719,x.x,a,a*hh<CR><LF>
$GPRMC,092127.61,A,5166.32,N,03922.93,E,0.x,x.x,240719,x.x,a,a*hh<CR><LF>
